[
  {
    "sector": "Accommodations",
    "city": "Los Angeles, CA 90029",
    "fax": "+1 323-906-1910",
    "tel": "+1 323-906-1910",
    "name": "The Rooming House",
    "country": "UNITED STATES",
    "__unidentified__": [
      "Dee Barber",
      "1024 N. Heliotrope Dr."
    ],
    "coordinate": {
      "latitude": 34.0880507,
      "longitude": -118.2965121
    }
  },
  {
    "sector": "Accounting Services",
    "city": "Lafayette, LA 70507",
    "tel": "+1 337-896-6258",
    "name": "A2Z Enterprizes",
    "country": "UNITED STATES",
    "__unidentified__": [
      "Patti Milligan",
      "408 Rue Scholastique"
    ],
    "coordinate": {
      "latitude": 30.270113,
      "longitude": -92.037116
    },
    "email": "milligan@bellsmith.net"
  },
  {
    "sector": "Accounting Services",
    "city": "Clearwater, FL 33756",
    "fax": "+1 727-443-6821",
    "tel": "+1 727-443-3355",
    "name": "Affluence Incorporated",
    "country": "UNITED STATES",
    "__unidentified__": [
      "Terry Tinkelenberg",
      "Complete accounting services, taxes, payroll, financial planning, bill paying, bank reconciliations, FP.",
      "820 Pinellas Street"
    ],
    "coordinate": {
      "latitude": 27.9413341,
      "longitude": -82.79402970000001
    },
    "email": "i@intnet.net"
  },
  {
    "sector": "Accounting Services",
    "city": "123308 Moscow",
    "fax": "+7 095-916-9662",
    "tel": "+7 095-946-3216",
    "name": "Analitic-Capital",
    "country": "RUSSIA",
    "__unidentified__": [
      "Ruslan Morgun",
      "Accounting, audits, finance consulting, standard FP.",
      "Mnevniki Str 3-2-311"
    ],
    "coordinate": {
      "latitude": 55.767681,
      "longitude": 37.48851
    },
    "email": "uslanauditor@km.ru"
  },
  {
    "sector": "Accounting Services",
    "city": "Tampa, FL 33629-6412",
    "fax": "+1 813-288-9745",
    "tel": "+1 813-288-1950",
    "name": "Anderson & Anderson, CPAs",
    "country": "UNITED STATES",
    "__unidentified__": [
      "Marlin Anderson",
      "5007 W. San Jose Street"
    ],
    "coordinate": {
      "latitude": 27.9263478,
      "longitude": -82.5131717
    }
  },
  {
    "sector": "Accounting Services",
    "city": "Culver City, CA 90230-4647",
    "fax": "+1 310-398-2143",
    "tel": "+1 310-398-7672",
    "name": "Audit Defender, Inc.",
    "country": "UNITED STATES",
    "__unidentified__": [
      "Ronald Singerman",
      "Prepares tax returns for individuals and all entities and states.",
      "11268 Washington Blvd.,",
      "Suite 202"
    ],
    "coordinate": {
      "latitude": 33.9933257,
      "longitude": -118.3987842
    },
    "email": "ons@earthlink.net"
  },
  {
    "sector": "Accounting Services",
    "city": "Gibbsboro, NJ 08026",
    "fax": "+1 856-346-2882",
    "tel": "+1 856-346-2828",
    "name": "Bagell, Josephs & Company, LLC",
    "country": "UNITED STATES",
    "__unidentified__": [
      "Glenn Josephs",
      "High Ridge Commons",
      "Suite 400-403"
    ],
    "coordinate": {
      "latitude": 39.8381698,
      "longitude": -74.9648887
    },
    "email": "josephs@bagelljosephs.com"
  },
  {
    "sector": "Accounting Services",
    "city": "Manasquan, NJ 08736",
    "fax": "+1 732-223-6201",
    "tel": "+1 732-223-2171",
    "name": "Bart Cecere, CPA, PC",
    "country": "UNITED STATES",
    "__unidentified__": [
      "Bart Cecere",
      "Tax and accounting services.",
      "170 Main St."
    ],
    "coordinate": {
      "latitude": 40.1136928,
      "longitude": -74.0376355
    },
    "email": "nfo@bartcecerecpa.com"
  },
  {
    "sector": "Accounting Services",
    "city": "East Troy, WI 53120",
    "fax": "+1 262-432-0991",
    "tel": "+1 262-432-0990",
    "name": "BBL Solutions, LLC",
    "country": "UNITED STATES",
    "__unidentified__": [
      "Rebecca Froeming",
      "Proactive management, accounting and tax solutions for small business and individuals.",
      "W1298 Beulah Lane Road"
    ],
    "coordinate": {
      "latitude": 42.7852922,
      "longitude": -88.40509600000001
    },
    "email": "blsolutions@aol.com"
  },
  {
    "sector": "Accounting Services",
    "city": "Santa Ana, CA 92705-3371",
    "fax": "+1 714-665-9525",
    "tel": "+1 800-495-1040",
    "name": "Bream Accounting & Tax Service",
    "country": "UNITED STATES",
    "__unidentified__": [
      "Tom Bream",
      "1841 La Colina Dr."
    ],
    "coordinate": {
      "latitude": 33.7455731,
      "longitude": -117.8678338
    },
    "email": "ombream@sbcglobal.net"
  },
  {
    "sector": "Accounting Services",
    "city": "Chicago, IL 60607-1901",
    "fax": "+1 312-733-5632",
    "tel": "+1 312-733-5615",
    "name": "Brookes Financial Services, Inc.",
    "country": "UNITED STATES",
    "__unidentified__": [
      "Carol Brookes",
      "Financial and accounting services.",
      "222 South Morgan St.",
      "Suite 3D"
    ],
    "coordinate": {
      "latitude": 41.8733696,
      "longitude": -87.650714
    },
    "email": "arolsbrookes@yahoo.com"
  },
  {
    "sector": "Accounting Services",
    "city": "Taipei, 231",
    "fax": "+886 28-667-2653",
    "tel": "+886 28-667-1624",
    "name": "Cheng, Yu-Hsam",
    "country": "TAIWAN",
    "__unidentified__": [
      "7F, No. 121, Min Chuan Rd.",
      "Hsintien"
    ],
    "coordinate": {
      "latitude": 24.9399889,
      "longitude": 121.5255815
    },
    "email": "inefirstletter@yahoo.com.tw"
  },
  {
    "sector": "Accounting Services",
    "city": "New York, NY 10036-5420",
    "tel": "+1 973-641-1423",
    "name": "Chichester, Scott",
    "country": "UNITED STATES",
    "__unidentified__": [
      "Charter Committee Member",
      "328 W. 44th St., #22"
    ],
    "coordinate": {
      "latitude": 40.7602619,
      "longitude": -73.9932872
    },
    "email": "cottychi@hotmail.com"
  },
  {
    "sector": "Accounting Services",
    "city": "Pintung, 900",
    "fax": "+886 68-733-7384",
    "tel": "+886 68-733-4940",
    "name": "Chun Ya Co., Ltd.",
    "country": "TAIWAN",
    "__unidentified__": [
      "Hsueh Ya Lin",
      "No. 162, Min Tsu Rd."
    ],
    "coordinate": {
      "latitude": 22.6558442,
      "longitude": 120.4703258
    }
  },
  {
    "sector": "Accounting Services",
    "city": "Glendale, CA 91203-2609",
    "fax": "+1 818-766-7767",
    "tel": "+1 818-259-6597",
    "name": "Clear & Simple Bookkeeping",
    "country": "UNITED STATES",
    "__unidentified__": [
      "Louise Gentry",
      "Bookkeeping, accounting and taxes.",
      "249 N. Brand Blvd., #541"
    ],
    "coordinate": {
      "latitude": 34.1531191,
      "longitude": -118.2614332
    },
    "email": "vgi@aol.com"
  },
  {
    "sector": "Accounting Services",
    "city": "Glendale, CA 91202",
    "fax": "+1 818-951-1844",
    "tel": "+1 818-951-1844",
    "name": "Cohen, Hillah",
    "country": "UNITED STATES",
    "__unidentified__": [
      "Bookkeeping & professional organizing; making the best of your space & resources.",
      "501 W. Glenoaks Blvd., Suite 104"
    ],
    "coordinate": {
      "latitude": 34.1688371,
      "longitude": -118.2702036
    },
    "email": "eela@cree8.net"
  },
  {
    "sector": "Accounting Services",
    "city": "Van Nuys, CA 91406",
    "fax": "+1 818-988-5407",
    "tel": "+1 310-312-1141",
    "name": "Cooper, Moss",
    "country": "UNITED STATES",
    "__unidentified__": [
      "Leonard Klein",
      "CPA/tax preparations.",
      "15400 Sherman Way, #380"
    ],
    "coordinate": {
      "latitude": 34.1898566,
      "longitude": -118.451357
    },
    "email": "iklein@aol.com"
  },
  {
    "sector": "Accounting Services",
    "city": "La Crescenta, CA 91214",
    "fax": "+1 818-450-0615",
    "tel": "+1 818-445-8188",
    "name": "Dan O\u2019Shea, CPA",
    "country": "UNITED STATES",
    "__unidentified__": [
      "Dan O\u2019Shea",
      "Full certified public accounting services includng tax, audit, software and business consulting.",
      "2841 Altura Ave., #20"
    ],
    "coordinate": {
      "latitude": 34.225,
      "longitude": -118.2369444
    },
    "email": "sheadt@yahoo.com"
  },
  {
    "sector": "Accounting Services",
    "city": "Morgan Hill, CA 95022",
    "fax": "+1 408-778-6045",
    "tel": "+1 408-778-1345",
    "name": "Dave Puliafico, CPA",
    "country": "UNITED STATES",
    "__unidentified__": [
      "Dave Puliafico",
      "Charter Committee Member",
      "1630 Tennant Ave."
    ],
    "coordinate": {
      "latitude": 37.1256374,
      "longitude": -121.6411522
    },
    "email": "avid7ot@garlic.com"
  },
  {
    "sector": "Accounting Services",
    "city": "Amarillo, TX 79109-2652",
    "fax": "+1 806-379-6867",
    "tel": "+1 806-379-6866",
    "name": "David Eck & Associates",
    "country": "UNITED STATES",
    "__unidentified__": [
      "David Eck",
      "P.O. Box 9253"
    ],
    "coordinate": {
      "latitude": 35.1633874,
      "longitude": -101.900579
    }
  },
  {
    "sector": "Accounting Services",
    "city": "Hixson, TN 37343",
    "fax": "+1 423-877-2718",
    "tel": "+1 423-875-2000",
    "name": "Deborah K. Davidson, CPA",
    "country": "UNITED STATES",
    "__unidentified__": [
      "Deborah Davidson",
      "1607 Hamill Rd."
    ],
    "coordinate": {
      "latitude": 35.137265,
      "longitude": -85.2368219
    },
    "email": "davidsoncpa@earthlink.net"
  },
  {
    "sector": "Accounting Services",
    "city": "Clinton Township, MI 48038",
    "tel": "+1 586-770-8455",
    "name": "Deluca, Karen",
    "country": "UNITED STATES",
    "__unidentified__": [
      "18125 Greenfield"
    ],
    "coordinate": {
      "latitude": 42.5976588,
      "longitude": -82.9394002
    },
    "email": "mjd59@aol.com"
  },
  {
    "sector": "Accounting Services",
    "city": "East Grinstead, Sussex RH19",
    "fax": "+44 1342-327353",
    "tel": "+44 1342-327353",
    "name": "Derek Field Accountants",
    "country": "UNITED KINGDOM",
    "__unidentified__": [
      "Derek Field",
      "Chartered accountants. A company with continuity and stability.",
      "Crown House",
      "37 High Street"
    ],
    "coordinate": {
      "latitude": 51.128742,
      "longitude": -0.014468
    },
    "email": "erek@derekfield.co.uk"
  },
  {
    "sector": "Accounting Services",
    "website": "www.uptrend.us",
    "fax": "+1 727-499-6855",
    "tel": "+1 727-442-6650",
    "name": "Dynamic Advantages, Inc.",
    "city": "Clearwater, FL 33757-0239",
    "country": "UNITED STATES",
    "__unidentified__": [
      "Richard Tinkelenberg",
      "Bookkeeping services. Foreign exchange trader.",
      "P.O. Box 239"
    ],
    "coordinate": {
      "latitude": 27.9656838,
      "longitude": -82.7976699
    },
    "email": "t@uptrend.us"
  },
  {
    "sector": "Accounting Services",
    "city": "Orlando, FL 32804",
    "tel": "+1 321-663-7915",
    "name": "Elise Palmieri, CPA",
    "country": "UNITED STATES",
    "__unidentified__": [
      "Elise Palmieri",
      "Charter Committee Member",
      "Personal & business advisor for executives.",
      "115 West King Street"
    ],
    "coordinate": {
      "latitude": 28.5747416,
      "longitude": -81.3949264
    },
    "email": "palmieri@cfl.rr.com"
  },
  {
    "sector": "Accounting Services",
    "city": "22063 Cantu (Co)",
    "fax": "+39 903-172-0108",
    "tel": "+39 903-172-0374",
    "name": "Emmevi Consulting, SAS",
    "country": "ITALY",
    "__unidentified__": [
      "Valerio Maspero",
      "Charter Committee Member",
      "Via Asiago, 27"
    ],
    "coordinate": {
      "latitude": 45.736778,
      "longitude": 9.125384
    },
    "email": "ipisas@tin.it"
  },
  {
    "sector": "Accounting Services",
    "city": "Etobicoke, ONT M8Z 1E1",
    "fax": "+1 416-255-7833",
    "tel": "+1 416-255-0313",
    "name": "Eugene Felske, CA",
    "country": "CANADA",
    "__unidentified__": [
      "Eugene Felske",
      "Public accountant.",
      "20 Simpson Ave."
    ],
    "coordinate": {
      "latitude": 43.6182485,
      "longitude": -79.501145
    },
    "email": "aeaf@rogers.com"
  },
  {
    "sector": "Accounting Services",
    "city": "Port Charlotte, FL 33949",
    "fax": "+1 941-625-2747",
    "tel": "+1 941-624-0192",
    "name": "Francis Hoban, CPA, BA",
    "country": "UNITED STATES",
    "__unidentified__": [
      "Francis Hoban",
      "Charter Committee Member",
      "Tax and accounting services.",
      "P.O. Box 495250"
    ],
    "coordinate": {
      "latitude": 26.98,
      "longitude": -82.08999999999999
    },
    "email": "hobancpa@earthlink.net"
  },
  {
    "sector": "Accounting Services",
    "city": "Atlanta, GA 30342-1900",
    "fax": "+1 404-256-5634",
    "tel": "+1 404-256-1218",
    "name": "George E. Clark, CPA, Inc.",
    "country": "UNITED STATES",
    "__unidentified__": [
      "George Clark",
      "5457 Roswell Rd. NE",
      "Suite 104"
    ],
    "coordinate": {
      "latitude": 33.8856615,
      "longitude": -84.3699767
    },
    "email": "clark@georgeclarkcpa.com"
  },
  {
    "sector": "Accounting Services",
    "city": "Toombul, QLD 4012",
    "fax": "+61 7-3366-2589",
    "tel": "+61 7-3366-2589",
    "name": "Gerasimova, Irina",
    "country": "AUSTRALIA",
    "__unidentified__": [
      "Balaklavskiy Pr., 18-2-122",
      "11742 Moscow",
      "Ginbey, Sue",
      "P.O. Box 1488"
    ],
    "coordinate": {
      "latitude": -27.4033451,
      "longitude": 153.0603284
    },
    "email": "ue@solutionsforbetterbusiness.com"
  },
  {
    "sector": "Accounting Services",
    "city": "Bayamon, PR 00960",
    "fax": "+1 787-780-1774",
    "tel": "+1 787-314-6638",
    "name": "Goveo, Hector",
    "country": "UNITED STATES",
    "__unidentified__": [
      "P.O. Box 1315"
    ],
    "coordinate": {
      "latitude": 18.398286,
      "longitude": -66.155861
    },
    "email": "pahigoveo@coqui.net"
  },
  {
    "sector": "Accounting Services",
    "city": "Montrose, CA 91020-3230",
    "fax": "+1 818-249-3240",
    "tel": "+1 818-249-3230",
    "name": "Greenberg & Jackson, CPAs",
    "country": "UNITED STATES",
    "__unidentified__": [
      "Bradford Bernstein, CPA",
      "An accountancy corporation. Accounting, tax reports, bookkeeping and consulting.",
      "2441 Honolulu Avenue",
      "Suite 120"
    ],
    "coordinate": {
      "latitude": 34.206551,
      "longitude": -118.224685
    },
    "email": "mgr@gnjcpas.com"
  },
  {
    "sector": "Accounting Services",
    "city": "Long Beach, CA 90802",
    "fax": "+1 562-495-3331",
    "tel": "+1 562-495-3331",
    "name": "Holmes & Associates",
    "country": "UNITED STATES",
    "__unidentified__": [
      "Larry Holmes CPA.",
      "400 Oceangate",
      "Suite 550"
    ],
    "coordinate": {
      "latitude": 33.7415317,
      "longitude": -118.1941785
    },
    "email": "holmes@holmescpa.com"
  },
  {
    "sector": "Accounting Services",
    "city": "Topeka, KS 66610",
    "fax": "+1 785-273-9475",
    "tel": "+1 785-273-9450",
    "name": "Holmes & Associates, Chartered",
    "country": "UNITED STATES",
    "__unidentified__": [
      "Robert Holmes, Jnr. CPA",
      "Accounting, tax and financial planning firm.",
      "3735 SW Wannamaker Rd."
    ],
    "coordinate": {
      "latitude": 38.9780349,
      "longitude": -95.8248352
    },
    "email": "holmes@h-a-c.com"
  },
  {
    "sector": "Accounting Services",
    "city": "Koashiung, 80292",
    "tel": "+886 67-711-1248",
    "name": "Hsu, Evita",
    "country": "TAIWAN",
    "__unidentified__": [
      "6F, No. 2-5, Lane 3",
      "Shin-Cheng Rd.",
      "Lin Ya Area"
    ],
    "coordinate": {
      "latitude": 22.626761,
      "longitude": 120.286873
    }
  },
  {
    "sector": "Accounting Services",
    "city": "Beaverton, OR 97005",
    "tel": "+1 503-409-8462",
    "name": "J & A Squared",
    "country": "UNITED STATES",
    "__unidentified__": [
      "Amy Woods",
      "4857 SW Larch Drive"
    ],
    "coordinate": {
      "latitude": 45.4923824,
      "longitude": -122.8029665
    },
    "email": "etteroheller@comcast.net"
  },
  {
    "sector": "Accounting Services",
    "city": "Laval, QUE H7L 5H3",
    "fax": "+1 450-628-9887",
    "tel": "+1 514-993-8787",
    "name": "Joly (Goyer), Serge",
    "country": "CANADA",
    "__unidentified__": [
      "4361 Avenue de La Renaissance"
    ],
    "coordinate": {
      "latitude": 45.5984541,
      "longitude": -73.7706136
    },
    "email": "olys@videotron.ca"
  },
  {
    "sector": "Accounting Services",
    "city": "Clearwater, FL 33756",
    "fax": "+1 727-446-5729",
    "tel": "+1 727-446-4725",
    "name": "Judith A. Gilbert, CPA",
    "country": "UNITED STATES",
    "__unidentified__": [
      "Judy Gilbert",
      "354 Foster Lane"
    ],
    "coordinate": {
      "latitude": 27.9413341,
      "longitude": -82.79402970000001
    }
  },
  {
    "sector": "Accounting Services",
    "city": "423800 Tatarstan",
    "fax": "+7 855-255-2133",
    "tel": "+7 855-237-1015",
    "name": "Kamaz",
    "country": "RUSSIA",
    "__unidentified__": [
      "Evgeniy Goldfine",
      "Chief accountant.",
      "Naberezhniye Chelny",
      "23/04-29"
    ],
    "coordinate": {
      "latitude": 55.713732,
      "longitude": 52.3971825
    },
    "email": "oldfine@kamaz.net"
  },
  {
    "sector": "Accounting Services",
    "city": "Portland, OR 97201",
    "fax": "+1 503-295-1065",
    "tel": "+1 503-295-1939",
    "name": "Les Whitworth, CPA",
    "country": "UNITED STATES",
    "__unidentified__": [
      "Les Whitworth",
      "MAKH Winner; 2 Years",
      "Charter Committee Member",
      "Consulting, accounting, tax preparation and advice.",
      "2075 SW First Avenue.",
      "Suite 2A"
    ],
    "coordinate": {
      "latitude": 45.505603,
      "longitude": -122.6882145
    },
    "email": "es@leswhitworthcpa.com"
  },
  {
    "sector": "Accounting Services",
    "website": "www.macalpinecarll.com",
    "fax": "+1 215-923-9188",
    "tel": "+1 215-923-1101",
    "name": "MacAlpine, Carll & Company, LLC",
    "city": "Philadelphia, PA 19106",
    "country": "UNITED STATES",
    "__unidentified__": [
      "Charles Adams",
      "CPA providing accounting, tax and audits services.",
      "437 Chestnut St., Ste. 1010"
    ],
    "coordinate": {
      "latitude": 39.9493801,
      "longitude": -75.145782
    },
    "email": "pa@macalpinecarll.com"
  },
  {
    "sector": "Accounting Services",
    "city": "50053 Empoli (Fi)",
    "tel": "+39 348-262-2529",
    "name": "Maggini, Paolo",
    "country": "ITALY",
    "__unidentified__": [
      "Via Cellini, 74"
    ],
    "coordinate": {
      "latitude": 43.7178919,
      "longitude": 10.9477782
    },
    "email": "aolomaggini@pmilon.it"
  },
  {
    "sector": "Accounting Services",
    "city": "Pinegowrie, 2123",
    "fax": "+27 11-781-4865",
    "tel": "+27 11-781-4865",
    "name": "Malherbe Horn CA (SA)",
    "country": "SOUTH AFRICA",
    "__unidentified__": [
      "Neil Malherbe",
      "Charter Committee Member",
      "Auditing, accounting, tax, company formations and secretarial, setting up companies and trusts, budgets and plans.",
      "P.O. Box 2347"
    ],
    "coordinate": {
      "latitude": -26.1163499,
      "longitude": 28.00072
    },
    "email": "ielm@telkomsa.net"
  },
  {
    "sector": "Accounting Services",
    "city": "Canton, OH 44709",
    "tel": "+1 330-354-9566",
    "name": "Mark Frey, CPA",
    "country": "UNITED STATES",
    "__unidentified__": [
      "Mark Frey",
      "Tax and accounting services. Fraud detection and prevention.",
      "4501 Yale Ave. NW"
    ],
    "coordinate": {
      "latitude": 40.8437144,
      "longitude": -81.3894297
    },
    "email": "frey@neo.rr.com"
  },
  {
    "sector": "Accounting Services",
    "city": "Clearwater, FL 33756",
    "fax": "+1 901-284-7776",
    "tel": "+1 727-445-7197",
    "name": "Money Management Solutions, Inc.",
    "country": "UNITED STATES",
    "__unidentified__": [
      "Sandra Simmons",
      "Complete bookkeeping services; saving you time and money.",
      "1245 S. MLK Ave., #203-C"
    ],
    "coordinate": {
      "latitude": 27.9413341,
      "longitude": -82.79402970000001
    },
    "email": "andrasimmons@verizon.net"
  },
  {
    "sector": "Accounting Services",
    "city": "Chalco, 56620",
    "fax": "+52 5-988-5913",
    "tel": "+52 5-988-5913",
    "name": "Morales Y Melo C.P.",
    "country": "MEXICO",
    "__unidentified__": [
      "Victor Melo",
      "Charter Committee Member",
      "Sauce Mz. 8 Lt. 14",
      "Col. Capultitla"
    ],
    "coordinate": {
      "latitude": 19.2647222,
      "longitude": -98.8975
    },
    "email": "melomym@prodigy.net.mex"
  },
  {
    "sector": "Accounting Services",
    "city": "Camarillo, CA 93010",
    "tel": "+1 818-266-0312",
    "name": "Peak, Incorporated",
    "country": "UNITED STATES",
    "__unidentified__": [
      "Laura Byrnes",
      "Full charge bookkeeping and administration.",
      "2510-G Las Posas Rd., #415"
    ],
    "coordinate": {
      "latitude": 34.2163937,
      "longitude": -119.0376023
    },
    "email": "aurabyrnes@hotmail.com"
  },
  {
    "sector": "Accounting Services",
    "city": "Clearwater, FL 33756",
    "fax": "+1 727-445-9606",
    "tel": "+1 727-445-9707",
    "name": "Perfectly Balanced Books, Inc.",
    "country": "UNITED STATES",
    "__unidentified__": [
      "Kathleen Lettau",
      "Tax returns, bookkeepingaccounts receivable/payable, training.",
      "611 Druid Rd. East",
      "Suite 403"
    ],
    "coordinate": {
      "latitude": 27.9413341,
      "longitude": -82.79402970000001
    },
    "email": "bb@ij.net"
  },
  {
    "sector": "Accounting Services",
    "city": "Fairport, NY 14450",
    "tel": "+1 585-385-1790",
    "name": "Provvidenza & Wright CPA\u2019s, LLC",
    "country": "UNITED STATES",
    "__unidentified__": [
      "Thomas Wright",
      "255 Woodcliff Dr."
    ],
    "coordinate": {
      "latitude": 43.0986742,
      "longitude": -77.44193779999999
    },
    "email": "wright@pwcpas.com"
  },
  {
    "sector": "Accounting Services",
    "city": "Bogota",
    "fax": "+57 7-343-5694",
    "tel": "+57 7-343-5694",
    "name": "Ramirez Zuluaga, Jose",
    "country": "COLOMBIA",
    "__unidentified__": [
      "Carrera 52 Numero 69-29"
    ],
    "coordinate": {
      "latitude": 4.598055599999999,
      "longitude": -74.0758333
    },
    "email": "orlandor@hotmail.com"
  },
  {
    "sector": "Accounting Services",
    "city": "Prahran, VIC 3181",
    "tel": "+61 3-9827-7305",
    "name": "Registered Tax Agent",
    "country": "AUSTRALIA",
    "__unidentified__": [
      "Normanby Waite & Associates",
      "Matt Waite",
      "Charter Committee Member",
      "We handle any and all legal and taxation rudiments for businesses operating in Australia, with liberal use of LRH policy.",
      "Mobile phone: +61 0419-153-198.",
      "P.O. Box 2194"
    ],
    "coordinate": {
      "latitude": -37.851524,
      "longitude": 144.993484
    },
    "email": "att@waite.net"
  },
  {
    "sector": "Accounting Services",
    "city": "Elmhurst, NY 11373",
    "fax": "+1 718-271-7714",
    "tel": "+1 718-271-5700",
    "name": "Richard Marmon-Halm, CPA, PC",
    "country": "UNITED STATES",
    "__unidentified__": [
      "Richard Marmon-Halm",
      "CPA specializing in small business.",
      "92-30 56th Ave.",
      "Suite LA"
    ],
    "coordinate": {
      "latitude": 40.737975,
      "longitude": -73.8801301
    },
    "email": "mh@rmarmonhalm.com"
  },
  {
    "sector": "Accounting Services",
    "city": "Boise, ID 83704-6162",
    "fax": "+1 208-322-6535",
    "tel": "+1 208-322-0635",
    "name": "Robert R. Naugler, CPA, PA",
    "country": "UNITED STATES",
    "__unidentified__": [
      "Robert Naugler",
      "6727 Ustick Road"
    ],
    "coordinate": {
      "latitude": 43.63208969999999,
      "longitude": -116.2863998
    },
    "email": "naugler@rmci.net"
  },
  {
    "sector": "Accounting Services",
    "city": "Montrose, CA 91020",
    "fax": "+1 818-249-4517",
    "tel": "+1 818-249-4577",
    "name": "Roland W. Fink, CPA",
    "country": "UNITED STATES",
    "__unidentified__": [
      "Roland Fink",
      "Make the right decisions \u2013 consult with the pro. Accounting and tax services; business and financial consulting.",
      "2441 Honolulu Ave.",
      "Suite 126"
    ],
    "coordinate": {
      "latitude": 34.206551,
      "longitude": -118.224685
    },
    "email": "fink@rwfinkcpa.com"
  },
  {
    "sector": "Accounting Services",
    "city": "Cary, NC 27511",
    "tel": "+1 919-465-6545",
    "name": "Sandy\u2019s Simple Systems",
    "country": "UNITED STATES",
    "__unidentified__": [
      "Sandra Stanley",
      "Telecommunications/financial services.",
      "P.O. Box 4314"
    ],
    "coordinate": {
      "latitude": 35.7698044,
      "longitude": -78.78162189999999
    },
    "email": "tan0479@bellsouth.net"
  },
  {
    "sector": "Accounting Services",
    "city": "20123 Milano",
    "fax": "+39 024-800-6146",
    "tel": "+39 024-800-7139",
    "name": "Settedata SRL",
    "country": "ITALY",
    "__unidentified__": [
      "Claudio Natale",
      "Via Vincenzo Monti, 47"
    ],
    "coordinate": {
      "latitude": 45.4616266,
      "longitude": 9.1741111
    },
    "email": "arinat@tin.it"
  },
  {
    "sector": "Accounting Services",
    "city": "Sao Paulo",
    "tel": "+55 1-4099-1084",
    "name": "Stoffel Soares, Soraya",
    "country": "BRAZIL",
    "__unidentified__": [
      "Professional accounting and tax services.",
      "Rua Sao Judas Tadeu",
      "67 Sl 10 Jd. Sto Antonio",
      "09920-000 Diadema"
    ],
    "coordinate": {
      "latitude": -23.5505199,
      "longitude": -46.63330939999999
    },
    "email": "ostoffel@terra.com.br"
  },
  {
    "sector": "Accounting Services",
    "city": "50053 Empoli Firenze",
    "fax": "+39 057-159-0499",
    "tel": "+39 057-159-0499",
    "name": "Studio Commerciale",
    "country": "ITALY",
    "__unidentified__": [
      "Scilla Ancillotti",
      "Via Cellini 74"
    ],
    "coordinate": {
      "latitude": 43.7178919,
      "longitude": 10.9477782
    },
    "email": "amma@internetlibero.it"
  },
  {
    "sector": "Accounting Services",
    "city": "36015 Schio (Vi)",
    "fax": "+39 044-553-0336",
    "tel": "+39 044-553-0336",
    "name": "Studio Cortiana",
    "country": "ITALY",
    "__unidentified__": [
      "Maria Carla Cortiana",
      "Payroll accounting practice.",
      "Via Romana Rompatu, 7"
    ],
    "coordinate": {
      "latitude": 45.7170517,
      "longitude": 11.3597702
    },
    "email": "cortia@tin.it"
  },
  {
    "sector": "Accounting Services",
    "city": "1072 Budapest",
    "fax": "+36 1-341-3190",
    "tel": "+36 1-341-3190",
    "name": "Szetey Muvek",
    "country": "HUNGARY",
    "__unidentified__": [
      "Agnes Szetey",
      "Kisdiofa U. 11. Fsz./2"
    ],
    "coordinate": {
      "latitude": 47.4986377,
      "longitude": 19.0649925
    },
    "email": "szetey@freemail.hu"
  },
  {
    "sector": "Accounting Services",
    "city": "Coral Springs, FL 33071",
    "fax": "+1 954-344-3694",
    "tel": "+1 954-755-4405",
    "name": "The Lipson Professional Group",
    "country": "UNITED STATES",
    "__unidentified__": [
      "Saul Lipson",
      "1515 N. University Dr.",
      "Suite 222"
    ],
    "coordinate": {
      "latitude": 26.2480143,
      "longitude": -80.2711588
    },
    "email": "aul@lipsongroup.com"
  },
  {
    "sector": "Accounting Services",
    "city": "Denver, CO 80206-1804",
    "fax": "+1 303-399-7564",
    "tel": "+1 303-316-8332",
    "name": "The Tax Place",
    "country": "UNITED STATES",
    "__unidentified__": [
      "Bill Meadoff",
      "We can serve all your tax and accounting needs.",
      "1510 Cook St."
    ],
    "coordinate": {
      "latitude": 39.7271021,
      "longitude": -104.9564084
    },
    "email": "illdvr@aol.com"
  },
  {
    "sector": "Accounting Services",
    "city": "Atlanta, GA 30345",
    "fax": "+1 404-288-2127",
    "tel": "+1 404-288-0123",
    "name": "The Tax Place of Atlanta",
    "country": "UNITED STATES",
    "__unidentified__": [
      "Deborah Danos",
      "Tax preparation, small business bookkeeping and all manner of small business support (consulting, business cards, flyers, brochures, etc.).",
      "3494 Briarcliff Rd."
    ],
    "coordinate": {
      "latitude": 33.8484195,
      "longitude": -84.2858121
    },
    "email": "qdanos@aol.com"
  },
  {
    "sector": "Accounting Services",
    "city": "Browndeer, WI 53223",
    "fax": "+1 414-355-7033",
    "tel": "+1 414-335-6042",
    "name": "Timothy E. Podolske, CPA, SC",
    "country": "UNITED STATES",
    "__unidentified__": [
      "Tim Podolske",
      "Professional accounting services.",
      "9425 N. 49th St., Ste. 203"
    ],
    "coordinate": {
      "latitude": 43.1666739,
      "longitude": -87.9824758
    },
    "email": "epcpa@wi.rr.com"
  },
  {
    "sector": "Accounting Services",
    "city": "1097 Budapest",
    "fax": "+36 1-216-7276",
    "tel": "+36 1-216-9107",
    "name": "Tiszta Lap Tarsasag Bt.",
    "country": "HUNGARY",
    "__unidentified__": [
      "Csilla Petho",
      "Hentes Utca 17. III./27."
    ],
    "coordinate": {
      "latitude": 47.4632531,
      "longitude": 19.0969629
    },
    "email": "isztalap@axelero.hu"
  },
  {
    "sector": "Accounting Services",
    "city": "1097 Budapest",
    "fax": "+36 1-216-7276",
    "tel": "+36 1-216-9107",
    "name": "Tiszta Lap Tarsasag Bt.",
    "country": "HUNGARY",
    "__unidentified__": [
      "Maria Toth",
      "Full accounting service for individuals\u2019 and companies\u2019 accounting, tax and administration consultation and training.",
      "Hentes Utca. 17. III./27."
    ],
    "coordinate": {
      "latitude": 47.4632531,
      "longitude": 19.0969629
    },
    "email": "isztalap@freemail.hu"
  },
  {
    "sector": "Accounting Services",
    "city": "1131 Budapest",
    "fax": "+36 1-320-8759",
    "tel": "+36 1-320-8795",
    "name": "Trillio Bt.",
    "country": "HUNGARY",
    "__unidentified__": [
      "Veronika Oszvaldne",
      "Karpeta",
      "Kucsma U. 6"
    ],
    "coordinate": {
      "latitude": 47.5462324,
      "longitude": 19.0878323
    },
    "email": "rillo.vera@axelero.hu"
  },
  {
    "sector": "Accounting Services",
    "city": "Herndon, VA 20170",
    "fax": "+1 703-709-7073",
    "tel": "+1 703-709-7072",
    "name": "Tyrrell, CPA, Stephen",
    "country": "UNITED STATES",
    "__unidentified__": [
      "Charter Committee Member",
      "Accounting services: tax preparation, small business accounting, tax or resolution of tax problems resolved.",
      "2209 Christy Place"
    ],
    "coordinate": {
      "latitude": 38.9695545,
      "longitude": -77.3860976
    },
    "email": "tyrrell@cox.net"
  },
  {
    "sector": "Accounting Services",
    "city": "Sunland, CA 91040",
    "fax": "+1 323-660-0412",
    "tel": "+1 323-660-0412",
    "name": "Valdez, Luis",
    "country": "UNITED STATES",
    "__unidentified__": [
      "10909 Scoville Ave."
    ],
    "coordinate": {
      "latitude": 34.2596475,
      "longitude": -118.3082747
    },
    "email": "alpe@juno.com"
  },
  {
    "sector": "Accounting Services",
    "city": "Northridge, CA 91324",
    "tel": "+1 818-701-7510",
    "name": "Wechsler, Abramson & Company",
    "country": "UNITED STATES",
    "__unidentified__": [
      "Gene Wechsler",
      "CPA firm.",
      "9010 Corbin Ave. #2"
    ],
    "coordinate": {
      "latitude": 34.2413938,
      "longitude": -118.5506158
    },
    "email": "ene@wac1040.com"
  },
  {
    "sector": "Accounting Services",
    "city": "Glendale, CA 91204",
    "fax": "+1 818-247-1861",
    "tel": "+1 818-247-1007",
    "name": "Wiseman & Burke, Inc.",
    "country": "UNITED STATES",
    "__unidentified__": [
      "Kevin Burke",
      "MAKH Winner; 6 Years",
      "Charter Committee Member",
      "A business and financial management company providing all accounting, bookkeeping and tax services. See ad on page 183.",
      "206 S. Brand Blvd., Ste. A"
    ],
    "coordinate": {
      "latitude": 34.1377656,
      "longitude": -118.2614332
    },
    "email": "nfo@w-binc.com"
  },
  {
    "sector": "Accounting Services",
    "city": "95833-1414",
    "fax": "+1 916-567-1236",
    "tel": "+1 916-567-1231",
    "name": "WK Boeger, CPA",
    "country": "UNITED STATES",
    "__unidentified__": [
      "William Boeger",
      "Accounting, taxation, business consulting. See ad on page 99.",
      "2041 Delgado Way",
      "Sacramento, CA"
    ],
    "coordinate": {
      "latitude": 38.6198298,
      "longitude": -121.5198716
    },
    "email": "kb53@cs.com"
  },
  {
    "sector": "Accounting Services",
    "city": "Glen Rock, NJ 07452",
    "fax": "+1 201-652-1016",
    "tel": "+1 201-652-2636",
    "name": "Workman, Steve",
    "country": "UNITED STATES",
    "__unidentified__": [
      "783 Lincoln Ave."
    ],
    "coordinate": {
      "latitude": 40.9628758,
      "longitude": -74.1329207
    },
    "email": "workman@jpw.com"
  },
  {
    "sector": "Accounting Services",
    "city": "Mount Evelyne, VIC 3796",
    "fax": "+61 3-9758-8892",
    "tel": "+61 3-9758-8486",
    "name": "Yarra Ranges Taxation Services, Pty., Ltd.",
    "country": "AUSTRALIA",
    "__unidentified__": [
      "Kenneth Lewis",
      "Public accounting and taxation services.",
      "5 Wray Crescent"
    ],
    "coordinate": {
      "latitude": -37.7848267,
      "longitude": 145.3783727
    },
    "email": "dmin@yrtax.com.au"
  },
  {
    "sector": "Accounting Services",
    "city": "45025 Fratta Polesine (Ro)",
    "fax": "+39 042-566-8621",
    "tel": "+39 042-566-8487",
    "name": "Zambello, Nicola",
    "country": "ITALY",
    "__unidentified__": [
      "Via Giovanni Tasso, 11/B1"
    ],
    "coordinate": {
      "latitude": 45.0287727,
      "longitude": 11.636095
    },
    "email": "atastudfratta@tin.it"
  },
  {
    "sector": "Actors",
    "city": "Taipei, 112",
    "fax": "+886 22-823-3490",
    "tel": "+886 93-962-9588",
    "name": "Chang, Juei-Chu",
    "country": "TAIWAN",
    "__unidentified__": [
      "4A, No 431, Kung-Kung Rd.",
      "Pei-Tou Area"
    ],
    "coordinate": {
      "latitude": 25.1363615,
      "longitude": 121.5027404
    },
    "email": "achelchang588@hotmail.com"
  },
  {
    "sector": "Actors",
    "city": "Los Angeles, CA 90068",
    "tel": "+1 213-453-2514",
    "name": "McCafferty, Tom",
    "country": "UNITED STATES",
    "__unidentified__": [
      "1970 Beachwood Dr., #4"
    ],
    "coordinate": {
      "latitude": 34.1235157,
      "longitude": -118.3286614
    },
    "email": "leemccaff@earthlink.net"
  },
  {
    "sector": "Actors",
    "city": "1121 Budapest",
    "tel": "+36 209-592-835",
    "name": "Oldamour Productions",
    "country": "HUNGARY",
    "__unidentified__": [
      "Margit Oberfrank",
      "Writing, editing and theatre; management training for artists.",
      "Kazmer Ut 32"
    ],
    "coordinate": {
      "latitude": 47.49793589999999,
      "longitude": 18.9690995
    },
    "email": "argit_8@freestart.hu"
  },
  {
    "sector": "Actors",
    "city": "1145 Budapest",
    "tel": "+36 1-221-4380",
    "name": "Pepita Bt.",
    "country": "HUNGARY",
    "__unidentified__": [
      "Laszlone Fenyvesi",
      "Szuglo U. 49-51"
    ],
    "coordinate": {
      "latitude": 47.51693540000001,
      "longitude": 19.1027481
    }
  },
  {
    "sector": "Acupuncture",
    "city": "Milwaukee, WI 53217",
    "fax": "+1 414-332-1888",
    "tel": "+1 414-332-8888",
    "name": "Acupuncture and Holistic Health Associates",
    "country": "UNITED STATES",
    "__unidentified__": [
      "Curry Chaudoir",
      "MAKH Winner; 1 Year",
      "Acupuncture, Chinese herbal medicine practice. Also a WISE-licensed consultant.",
      "5150 N. Port Washington Rd. Suite 102"
    ],
    "coordinate": {
      "latitude": 43.1652687,
      "longitude": -87.9040571
    },
    "email": "welvespice@hotmail.com"
  },
  {
    "sector": "Acupuncture",
    "city": "Arlington, VA 22205",
    "fax": "+1 703-243-5539",
    "tel": "+1 703-528-8272",
    "name": "Heavenly Bodies Clinic",
    "country": "UNITED STATES",
    "__unidentified__": [
      "Kathe Ana",
      "Acupunture, meridian exercise and therapeutic massage.",
      "1305 N. Evergreen Street"
    ],
    "coordinate": {
      "latitude": 38.88226890000001,
      "longitude": -77.142764
    },
    "email": "atheana@verizon.net"
  },
  {
    "sector": "Acupuncture",
    "city": "1446 Budapest",
    "fax": "+36 1-215-6748",
    "tel": "+36 1-215-6748",
    "name": "Administration Service",
    "country": "HUNGARY",
    "__unidentified__": [
      "Bodorne, Guba Agnes",
      "Manager/impresario.",
      "Pf: 378"
    ],
    "coordinate": {
      "latitude": 47.4911983,
      "longitude": 19.0624765
    },
    "email": "odorcsaba@axelero.hu"
  },
  {
    "sector": "Acupuncture",
    "city": "1106 Budapest",
    "fax": "+36 1-309-7561",
    "tel": "+36 1-309-7560",
    "name": "Hathaz Bt.",
    "country": "HUNGARY",
    "__unidentified__": [
      "Nora Szabo",
      "Supervisor.",
      "Hathaz U. 7. 314. Ajto"
    ],
    "coordinate": {
      "latitude": 47.493252,
      "longitude": 19.173524
    },
    "email": "ire.opal@freemail.hu"
  },
  {
    "sector": "Acupuncture",
    "city": "Indianapolis, IN 46214",
    "fax": "+1 317-246-1966",
    "tel": "+1 317-246-1988",
    "name": "Lee, Sheina",
    "country": "UNITED STATES",
    "__unidentified__": [
      "6451 Rockville Road"
    ],
    "coordinate": {
      "latitude": 39.7884076,
      "longitude": -86.28695069999999
    },
    "email": "heenaofthejungle20032001@yahoo.com"
  },
  {
    "sector": "Acupuncture",
    "city": "141400 Moscow Khimki",
    "tel": "+7 095-777-2670",
    "name": "Masterfaiber, Ltd.",
    "country": "RUSSIA",
    "__unidentified__": [
      "Natalia Strelchenko",
      "Moskovskaya 21"
    ],
    "coordinate": {
      "latitude": 55.9094555,
      "longitude": 37.41613
    },
    "email": "trelaka-1@mail.ru"
  },
  {
    "sector": "Acupuncture",
    "city": "Trumbull, CT 06611",
    "fax": "+1 203-378-2482",
    "tel": "+1 203-378-6137",
    "name": "Nieman, Joan",
    "country": "UNITED STATES",
    "__unidentified__": [
      "129 North Street"
    ],
    "coordinate": {
      "latitude": 41.2428563,
      "longitude": -73.2006639
    },
    "email": "nieman@bestfriends.net"
  },
  {
    "sector": "Acupuncture",
    "city": "Merillville, IN 46410",
    "fax": "+1 219-756-7114",
    "tel": "+1 219-756-7100",
    "name": "Santiago, Stephanie",
    "country": "UNITED STATES",
    "__unidentified__": [
      "Charter Committee Member",
      "1453 E. 84th Place"
    ],
    "coordinate": {
      "latitude": 41.47019890000001,
      "longitude": -87.32149079999999
    },
    "email": "tephanie@totalbiz247.com"
  },
  {
    "sector": "Acupuncture",
    "city": "Barwon Heads, VIC 3227",
    "tel": "+61 4-1271-3102",
    "name": "Seascape Consulting",
    "country": "AUSTRALIA",
    "__unidentified__": [
      "Margaret Isom",
      "Strategic planning.",
      "30 Stephens Parade"
    ],
    "coordinate": {
      "latitude": -38.2814434,
      "longitude": 144.4911793
    },
    "email": "eascape@bigpond.net.au"
  },
  {
    "sector": "Acupuncture",
    "city": "Glendale, CA 91207-1646",
    "name": "Weidlich, Alan",
    "country": "UNITED STATES",
    "__unidentified__": [
      "Manager/Executive.",
      "1137 N. Maryland Ave. #1"
    ],
    "coordinate": {
      "latitude": 34.1893001,
      "longitude": -118.2702036
    }
  },
  {
    "sector": "Advertising",
    "city": "Kosice, 040 01",
    "fax": "+42 1-556-787136",
    "tel": "+42 1-556-780285",
    "name": "Ads Graphic",
    "country": "SLOVAKIA",
    "__unidentified__": [
      "Michal Nemcik",
      "Jantarova 30. /5 P."
    ],
    "coordinate": {
      "latitude": 48.7134489,
      "longitude": 21.2618872
    },
    "email": "emcik@reno.sk"
  },
  {
    "sector": "Advertising",
    "website": "www.offbeatproductions.com",
    "fax": "+1 818-998-4157",
    "tel": "+1 818-998-7767",
    "name": "Adventures in Advertising/Offbeat Productions",
    "city": "Northridge, CA 91325",
    "country": "UNITED STATES",
    "__unidentified__": [
      "Shannon & Bob Nellis",
      "Thousands of items available with your logo imprinted. Best quality, fastest service, professional and fun.",
      "17070 Parthenia St."
    ],
    "coordinate": {
      "latitude": 34.2400436,
      "longitude": -118.5155901
    },
    "email": "ffbeat@advinadv.com"
  },
  {
    "sector": "Advertising",
    "city": "8200 Veszprem",
    "fax": "+36 88-328-069",
    "tel": "+36 88-328-059",
    "name": "Conart Reklam Studio, Kft.",
    "country": "HUNGARY",
    "__unidentified__": [
      "Peter Fabo",
      "Gerenda U. 4."
    ],
    "coordinate": {
      "latitude": 47.1139486,
      "longitude": 17.9025358
    },
    "email": "onart@vnet.hu"
  },
  {
    "sector": "Advertising",
    "website": "www.designstrategies.com",
    "fax": "+1 727-466-6881",
    "tel": "+1 727-466-6888",
    "name": "Design Strategies, Inc.",
    "city": "Clearwater, FL 33765-1223",
    "country": "UNITED STATES",
    "__unidentified__": [
      "Len Williams",
      "Professional design of logos, brochures, ads, packaging, web site design & programming for clients across the U.S. and internationally.",
      "2060 Sunset Point Rd.",
      "Unit 52"
    ],
    "coordinate": {
      "latitude": 27.9765043,
      "longitude": -82.74280569999999
    },
    "email": "nfo@designstrategies.com"
  },
  {
    "sector": "Advertising",
    "city": "1163 Budapest",
    "tel": "+36 1-403-2219",
    "name": "Dimako, Kft.",
    "country": "HUNGARY",
    "__unidentified__": [
      "Matyas Furulyas",
      "Andras U. 22"
    ],
    "coordinate": {
      "latitude": 47.5108652,
      "longitude": 19.1746722
    },
    "email": "mhun@westel900.net"
  },
  {
    "sector": "Advertising",
    "city": "Clearwater, FL 33765",
    "fax": "+1 727-799-7572",
    "tel": "+1 727-799-5311",
    "name": "Excellent Marketing Results, Inc.",
    "country": "UNITED STATES",
    "__unidentified__": [
      "Michael McGahee",
      "Full service advertising agency.",
      "1502 Midnight Pass Way"
    ],
    "coordinate": {
      "latitude": 27.9765043,
      "longitude": -82.74280569999999
    },
    "email": "ikem33@tampabay.rr.com"
  },
  {
    "sector": "Advertising",
    "website": "www.attractcustomers.com",
    "fax": "+1 727-461-0520",
    "tel": "+1 727-442-9137",
    "name": "Fast Forward Marketing & PR, Inc.",
    "city": "Clearwater, FL 33756",
    "country": "UNITED STATES",
    "__unidentified__": [
      "Richard Byrd",
      "Charter Committee Member",
      "Marketing specialists in Data Series and Esto tech. Guaranteed consulting. Personal power programs, evaluations, Why-findings and handlings for individuals, small businesses, multinational corporations.",
      "804 Franklin Street"
    ],
    "coordinate": {
      "latitude": 27.9413341,
      "longitude": -82.79402970000001
    },
    "email": "ichbyrd@attractcustomers.com"
  },
  {
    "sector": "Advertising",
    "city": "10139 Torino",
    "tel": "+39 901-159-9052",
    "name": "Freiria Visual Designer",
    "country": "ITALY",
    "__unidentified__": [
      "Mario Freiria",
      "Advertising designer \u2013 graphic art & design.",
      "Via Condove, 24"
    ],
    "coordinate": {
      "latitude": 45.0708466,
      "longitude": 7.6414279
    },
    "email": "reiria@ihnet.it"
  },
  {
    "sector": "Advertising",
    "city": "Penshurst, NSW 2222",
    "name": "Georgulis Enterprises",
    "country": "AUSTRALIA",
    "__unidentified__": [
      "Stephen Georgulis",
      "46 Laycock Rd."
    ],
    "coordinate": {
      "latitude": -33.9650448,
      "longitude": 151.0883221
    },
    "email": "edistevo@dodo.com.au"
  },
  {
    "sector": "Advertising",
    "city": "63128 Dietzenbach",
    "tel": "+49 172-800-2564",
    "name": "Grabes, Arnd",
    "country": "GERMANY",
    "__unidentified__": [
      "Advertising in buses.",
      "Lowen Strasse 7"
    ],
    "coordinate": {
      "latitude": 50.0172906,
      "longitude": 8.7869609
    },
    "email": "rnd@grabes.de"
  },
  {
    "sector": "Advertising",
    "city": "Tumen",
    "fax": "+7 346-644-7013",
    "tel": "+7 346-644-7013",
    "name": "Iaa Premiya-PR",
    "country": "RUSSIA",
    "__unidentified__": [
      "Elena Velikaya",
      "PR, ad and information agency.",
      "Internatsionalnaya Str 12A-40",
      "628600 Nizhnevartovsk"
    ],
    "coordinate": {
      "latitude": 57.1666667,
      "longitude": 65.5
    },
    "email": "rime_pr@mail.ru"
  },
  {
    "sector": "Advertising",
    "city": "Clearwater, FL 33755",
    "fax": "+1 727-446-7979",
    "tel": "+1 727-446-8482",
    "name": "Jeschke Incorporated",
    "country": "UNITED STATES",
    "__unidentified__": [
      "Hans Peter Jeschke",
      "Advertising and marketing on the Internet.",
      "1648 Pine Place"
    ],
    "coordinate": {
      "latitude": 27.981827,
      "longitude": -82.7886395
    },
    "email": "p@jeschke.com"
  },
  {
    "sector": "Advertising",
    "city": "Lafayette, LA 70506",
    "fax": "+1 337-981-6412",
    "tel": "+1 337-230-1561",
    "name": "Landry, Connie",
    "country": "UNITED STATES",
    "__unidentified__": [
      "Advertising sales.",
      "305 Belle Dame Dr."
    ],
    "coordinate": {
      "latitude": 30.2002897,
      "longitude": -92.0763253
    },
    "email": "blandry5@rs.com"
  },
  {
    "sector": "Advertising",
    "city": "His-Chih, Taipei, 221",
    "tel": "+886 22-357-3608",
    "name": "Lien Kuang Co., Ltd.",
    "country": "TAIWAN",
    "__unidentified__": [
      "Cheng-I Chih",
      "6-2, Alley 97, Lane 110",
      "Hu-Chien Rd."
    ],
    "email": "vy.chih@kgiua.com"
  },
  {
    "sector": "Advertising",
    "city": "Jersey City, NJ 07307",
    "fax": "+1 212-591-6986",
    "tel": "+1 201-792-4704",
    "name": "Local Business Partnership",
    "country": "UNITED STATES",
    "__unidentified__": [
      "Jakubie Wicks",
      "Primerica-personal financial analyst.",
      "933-A Summit Ave.",
      "1st Floor"
    ],
    "coordinate": {
      "latitude": 40.7473758,
      "longitude": -74.0505752
    },
    "email": "bp_wicks@yahoo.com"
  },
  {
    "sector": "Advertising",
    "city": "37132 Verona",
    "fax": "+39 045-892-2258",
    "tel": "+39 045-892-2133",
    "name": "Luca Mercury Communications",
    "country": "ITALY",
    "__unidentified__": [
      "Luca Mercury",
      "Advertising and graphics.",
      "Via Mons. G. Gentilin 2"
    ],
    "coordinate": {
      "latitude": 45.4194856,
      "longitude": 11.0587448
    },
    "email": "nfo@lucamercury.com"
  },
  {
    "sector": "Advertising",
    "city": "Portland, OR 97221",
    "fax": "+1 503-939-9587",
    "tel": "+1 503-274-1459",
    "name": "Michaels Creative Services",
    "country": "UNITED STATES",
    "__unidentified__": [
      "Greg Michaels",
      "4051 SW Tunnel Wood St."
    ],
    "coordinate": {
      "latitude": 45.4940477,
      "longitude": -122.7323946
    },
    "email": "reggmcs@comcast.net"
  },
  {
    "sector": "Advertising",
    "city": "Clearwater, FL 33756",
    "fax": "+1 727-442-5130",
    "tel": "+1 800-628-1804",
    "name": "PostcardMania",
    "country": "UNITED STATES",
    "__unidentified__": [
      "Joy Gendusa",
      "Home of 5000, full-color, super-glossy postcards for only $389. We can also design and mail them for you and even help you acquire a mailing list! See ad on page 31.",
      "404 S. MLK Jr. Ave."
    ],
    "coordinate": {
      "latitude": 27.9413341,
      "longitude": -82.79402970000001
    }
  },
  {
    "sector": "Advertising",
    "website": "www.rsvpatlanta.com",
    "fax": "+1 770-242-1818",
    "tel": "+1 770-242-0032",
    "name": "RSVP & Homeowner Publications of GA, Inc.",
    "city": "Atlanta, GA 30360",
    "country": "UNITED STATES",
    "__unidentified__": [
      "Mari Taylor",
      "Direct mail postcards to upscale consumers.",
      "6695 Peachtree Industrial Blvd.",
      "Suite 202"
    ],
    "coordinate": {
      "latitude": 33.936899,
      "longitude": -84.2752831
    },
    "email": "ari@rsvpatlanta.com"
  },
  {
    "sector": "Advertising",
    "city": "Lake Worth, FL 33467",
    "fax": "+1 561-434-1342",
    "tel": "+1 561-434-1215",
    "name": "RSVP Gold Coast, Inc.",
    "country": "UNITED STATES",
    "__unidentified__": [
      "Marilyn Cocco",
      "6894 Lake Worth Rd. Suite 207"
    ],
    "coordinate": {
      "latitude": 26.5861576,
      "longitude": -80.1763467
    },
    "email": "inyempire@earthlink.net"
  },
  {
    "sector": "Advertising",
    "city": "535600 Odorheiu Secuiesc",
    "fax": "+40 6-621-8318",
    "tel": "+40 6-621-8318",
    "name": "Signo, Ltd.",
    "country": "ROMANIA",
    "__unidentified__": [
      "Attila Jozsa",
      "Signmaking workshop, advertising, design, digital printing.",
      "Str. Izvorului 21"
    ],
    "coordinate": {
      "latitude": 46.313011,
      "longitude": 25.3009
    },
    "email": "romo@signo.ro"
  },
  {
    "sector": "Advertising",
    "city": "Burbank, CA 91501",
    "fax": "+1 818-558-7239",
    "tel": "+1 818-558-7231",
    "name": "Solari Communications",
    "country": "UNITED STATES",
    "__unidentified__": [
      "Tom & Jan Solari",
      "Video, DVD, web site, film & stage productions for business & corporate promotions, events & entertainment.",
      "616 S. Sunset Canyon Dr."
    ],
    "coordinate": {
      "latitude": 34.2039087,
      "longitude": -118.2935891
    },
    "email": "om@solaricomm.com"
  },
  {
    "sector": "Advertising",
    "city": "Beverly Hills, CA 90210",
    "fax": "+1 310-659-5639",
    "tel": "+1 310-385-7795",
    "name": "Studio \u201cG\u201d International",
    "country": "UNITED STATES",
    "__unidentified__": [
      "Gary Michaels",
      "Advertising and entertainment production, consulting.",
      "350 N. Palm Dr."
    ],
    "coordinate": {
      "latitude": 34.0736204,
      "longitude": -118.4003563
    },
    "email": "arym3int@aol.com"
  },
  {
    "sector": "Advertising",
    "city": "Clearwater, FL 33755",
    "tel": "+1 727-443-1442",
    "name": "Targetted Marketing, Inc.",
    "country": "UNITED STATES",
    "__unidentified__": [
      "Bill Pages",
      "1536 Bonair St."
    ],
    "coordinate": {
      "latitude": 27.981827,
      "longitude": -82.7886395
    },
    "email": "ill@vipprogram.org"
  },
  {
    "sector": "Advertising",
    "city": "Scarborough, ONT M1R 4P9",
    "fax": "+1 416-447-5467",
    "tel": "+1 416-447-6646",
    "name": "Toronto Advertising Limited",
    "country": "CANADA",
    "__unidentified__": [
      "Louis Vaillancourt",
      "Flyer distribution and printing.",
      "24 Cavehill Crescent"
    ],
    "coordinate": {
      "latitude": 43.76777449999999,
      "longitude": -79.3109935
    },
    "email": "ouis@toronto-advertising.com"
  },
  {
    "sector": "Advertising",
    "city": "Valparaiso, IN 46385",
    "fax": "+1 219-756-7114",
    "tel": "+1 887-756-7100",
    "name": "TotalBiz 247",
    "country": "UNITED STATES",
    "__unidentified__": [
      "Bonnie Gorczyca",
      "Website advertising.",
      "41 S. Smoke Road"
    ],
    "coordinate": {
      "latitude": 41.4730948,
      "longitude": -87.0611412
    },
    "email": "onnie@totalbiz247.com"
  },
  {
    "sector": "Advertising",
    "city": "90039-3303",
    "fax": "+1 323-666-6244",
    "tel": "+1 323-665-0144",
    "name": "Whitman Hall",
    "country": "UNITED STATES",
    "__unidentified__": [
      "Ken Whitman",
      "Award winning design, advertising, web sites. See ad on page 189.",
      "2200 Brier Ave.",
      "Los Angeles, CA"
    ],
    "coordinate": {
      "latitude": 34.1103407,
      "longitude": -118.2585096
    },
    "email": "whitman@earthlink.net"
  },
  {
    "sector": "Advertising",
    "city": "Moskovskaya",
    "tel": "+7 916-116-5482",
    "name": "Zharkin & Partners",
    "country": "RUSSIA",
    "__unidentified__": [
      "Yevgeny Zharkin",
      "Brand development, advertising and marketing, surveys in Russia.",
      "Zapadnaya Str., 18-A, 12",
      "144010 Elektrostal"
    ],
    "coordinate": {
      "latitude": 55.340396,
      "longitude": 38.2917651
    },
    "email": "evgeny@zharkin-partners.ru"
  },
  {
    "sector": "Advertising",
    "city": "La Jolla, CA 92037",
    "fax": "+1 858-456-4869",
    "tel": "+1 858-456-4867",
    "name": "Zoro Media Group",
    "country": "UNITED STATES",
    "__unidentified__": [
      "Mark Speros",
      "1010 Pearl St.",
      "Suite 10"
    ],
    "coordinate": {
      "latitude": 32.8328112,
      "longitude": -117.2712717
    },
    "email": "speros@zmginc.com"
  },
  {
    "sector": "Agriculture",
    "city": "La Uruca San Jose",
    "tel": "+50 6-209-2944",
    "name": "Agrocosta",
    "country": "COSTA RICA",
    "__unidentified__": [
      "Didier Rodriguez",
      "Agrochemicals sales in Central America and the Caribbean.",
      "100 Metros Norte de Capris"
    ],
    "coordinate": {
      "latitude": 9.766670000000001,
      "longitude": -84.13329999999999
    },
    "email": "grocost@rasca.co.cr"
  },
  {
    "sector": "Agriculture",
    "city": "Crowley, LA 70526",
    "tel": "+1 337-267-2179",
    "name": "Crystal Rice Plantation",
    "country": "UNITED STATES",
    "__unidentified__": [
      "Jeb Wright",
      "175 Blue Lake Drive"
    ],
    "coordinate": {
      "latitude": 30.2140928,
      "longitude": -92.3745761
    },
    "email": "illiamjwright1@compuserve.com"
  },
  {
    "sector": "Agriculture",
    "city": "Edo. Mexico, 09500",
    "fax": "+52 5-256-4279",
    "tel": "+52 525-642-4279",
    "name": "Mplas de Mexico S.A. de C.V.",
    "country": "MEXICO",
    "__unidentified__": [
      "Fernando Padilla E.",
      "Miguel Hidalgo",
      "Manzana 1, Lote",
      "Sta. Maria Aztahuacan"
    ],
    "coordinate": {
      "latitude": 19.4968732,
      "longitude": -99.72326729999999
    }
  },
  {
    "sector": "Agriculture",
    "city": "Buga, Valle De Cauca",
    "tel": "+57 2-237-4465",
    "name": "Navia, Fernando",
    "country": "COLOMBIA",
    "__unidentified__": [
      "Sugar cane agriculturer.",
      "Calle 6 No. 13 43, Ofc. 401"
    ],
    "coordinate": {
      "latitude": 2.5725523,
      "longitude": -76.7783748
    },
    "email": "tpicos@yahoo.com"
  },
  {
    "sector": "Agriculture",
    "country": "RUSSIA",
    "name": "Zhukov, Alexander",
    "__unidentified__": [
      "Tverskaya Obl.,",
      "Suvorova 21-5"
    ],
    "city": "172060 Torzhok Tvrsk"
  },
  {
    "sector": "Air Charter",
    "city": "Nantucket, MA 02554",
    "fax": "+1 508-228-3962",
    "tel": "+1 800-253-5039",
    "name": "Ocean Wings Air Charter",
    "country": "UNITED STATES",
    "__unidentified__": [
      "Herb Cabral",
      "Air charter, aircraft management \u2013 fractional.",
      "14 Airport Rd., Unit 15"
    ],
    "coordinate": {
      "latitude": 41.2708115,
      "longitude": -70.0264952
    },
    "email": "ings@nantucket.net"
  },
  {
    "sector": "Air Cleaning Services",
    "city": "35100 5 Padova",
    "name": "Clear Service",
    "country": "ITALY",
    "__unidentified__": [
      "Nadia Michieletto",
      "Via Jacopo Corrado"
    ],
    "coordinate": {
      "latitude": 45.39991,
      "longitude": 11.87632
    }
  },
  {
    "sector": "Air Cleaning Systems",
    "city": "Glendale, CA 91206",
    "fax": "+1 818-241-5323",
    "tel": "+1 818-246-3581",
    "name": "Clean Aire Corporation",
    "country": "UNITED STATES",
    "__unidentified__": [
      "David McConnell",
      "HVAC air duct, dryer duct and chimney cleaning.",
      "531 N. Kenwood #207"
    ],
    "coordinate": {
      "latitude": 34.1527251,
      "longitude": -118.2117257
    },
    "email": "learair@earthlink.net"
  },
  {
    "sector": "Air Conditioning",
    "city": "Lodi, CA 95240",
    "fax": "+1 916-714-1490",
    "tel": "+1 916-922-2775",
    "name": "Affordable Heating & Air",
    "country": "UNITED STATES",
    "__unidentified__": [
      "Joe Bertolucci",
      "Heating and air conditioning.",
      "14320 North Curry Ave."
    ],
    "coordinate": {
      "latitude": 38.1341477,
      "longitude": -121.2722194
    }
  },
  {
    "sector": "Air Conditioning",
    "city": "Wheaton, IL 60187",
    "fax": "+1 630-933-0446",
    "tel": "+1 630-933-0033",
    "name": "Airmaker, Inc.",
    "country": "UNITED STATES",
    "__unidentified__": [
      "Larry Speranske",
      "Heating, air conditioning, indoor air quality for commercial and residential. Home builder, remodeler and we buy/sell and rent homes.",
      "217 S. Hale St."
    ],
    "coordinate": {
      "latitude": 41.8745267,
      "longitude": -88.1193763
    },
    "email": "uccessfulinc@hotmail.com"
  },
  {
    "sector": "Air Conditioning",
    "city": "Fair Oaks, CA 95628-5227",
    "fax": "+1 916-992-6092",
    "tel": "+1 916-992-9400",
    "name": "American Academic Alliance of AAA",
    "country": "UNITED STATES",
    "__unidentified__": [
      "Miki Smith",
      "Heating and air conditioning.",
      "4905 Stonewood Ct."
    ],
    "coordinate": {
      "latitude": 38.6446264,
      "longitude": -121.2721718
    },
    "email": "iki@airsmith.net"
  },
  {
    "sector": "Air Conditioning",
    "city": "20060 Basiano MI",
    "tel": "+39 339-277-5261",
    "name": "Bedettii, Carlo",
    "country": "ITALY",
    "__unidentified__": [
      "Vendita-installazione condizionatori d\u2019aria.",
      "Via Leopardi, 4"
    ],
    "coordinate": {
      "latitude": 45.5803638,
      "longitude": 9.4630165
    }
  },
  {
    "sector": "Air Conditioning",
    "city": "Clearwater, FL 33762",
    "fax": "+1 727-573-5344",
    "tel": "+1 727-572-7119",
    "name": "Controlled Release Technologies",
    "country": "UNITED STATES",
    "__unidentified__": [
      "Lynn Burkhart",
      "We manufacture cleaning chemicals & coatings which help keep air conditioners clean and last longer.",
      "12745 49th St. North"
    ],
    "coordinate": {
      "latitude": 27.9006925,
      "longitude": -82.68614459999999
    },
    "email": "aq@ix.netcom.com"
  },
  {
    "sector": "Air Conditioning",
    "city": "Wauconda, IL 60084",
    "fax": "+1 847-566-0979",
    "tel": "+1 847-566-6009",
    "name": "Gleason & Elfering",
    "country": "UNITED STATES",
    "__unidentified__": [
      "Karen Lewis",
      "1150 Brown St., Unit 1"
    ],
    "coordinate": {
      "latitude": 42.2589122,
      "longitude": -88.1392474
    },
    "email": "lewis@gleason-elfering.com"
  },
  {
    "sector": "Air Conditioning",
    "city": "Wauconda, IL 60084",
    "fax": "+1 847-566-0979",
    "tel": "+1 847-566-6009",
    "name": "Gleason & Elfering",
    "country": "UNITED STATES",
    "__unidentified__": [
      "Tim Martin",
      "Heating and air conditioning contractor.",
      "1150 Brown St., Unit 1"
    ],
    "coordinate": {
      "latitude": 42.2589122,
      "longitude": -88.1392474
    }
  },
  {
    "sector": "Air Conditioning",
    "city": "Watsonville, CA 95076",
    "name": "Hinojosa, Tammy",
    "country": "UNITED STATES",
    "__unidentified__": [
      "Heating and air conditioning installation.",
      "511 Calabasas Rd."
    ],
    "coordinate": {
      "latitude": 36.910231,
      "longitude": -121.7568946
    }
  },
  {
    "sector": "Air Conditioning",
    "city": "Chadstone, VIC 3148",
    "fax": "+61 3-9543-7544",
    "tel": "+61 3-9543-7999",
    "name": "Jekel, Gareth",
    "country": "AUSTRALIA",
    "__unidentified__": [
      "Refrigeration & air conditioning service and installation. Specializing in supermarkets and convenience stores.",
      "5 Kierens Way"
    ],
    "coordinate": {
      "latitude": -37.88787629999999,
      "longitude": 145.0952034
    },
    "email": "jekel@tpg.com.au"
  },
  {
    "sector": "Air Conditioning",
    "city": "121087 Moscow",
    "fax": "+7 095-737-5241",
    "tel": "+7 095-737-5252",
    "name": "Severnaya Imperia",
    "country": "RUSSIA",
    "__unidentified__": [
      "Alexander Yugov",
      "Sales of air conditioners & heating systems.",
      "Bagrationovskiy Proezd 7",
      "A/Ya 16"
    ],
    "coordinate": {
      "latitude": 55.8546225,
      "longitude": 37.336706
    },
    "email": "lex-0000@mtu-net.ru"
  },
  {
    "sector": "Air Conditioning",
    "city": "Johannesburg, Gauteng",
    "name": "Supercool Airconditioning",
    "country": "SOUTH AFRICA",
    "__unidentified__": [
      "Nick Howarth",
      "55 Oxford Street",
      "Kensington"
    ],
    "coordinate": {
      "latitude": -26.2041028,
      "longitude": 28.0473051
    }
  },
  {
    "sector": "Animal Services",
    "city": "Montreal, QC H2H 1J6",
    "fax": "+1 514-521-4922",
    "tel": "+1 514-521-0201",
    "name": "Animalerie M & M",
    "country": "CANADA",
    "__unidentified__": [
      "Marc Lavigne",
      "Pet Shop: Full service pet store \u2013 sales \u2013 grooming \u2013 boarding, dogs, cats, birds, fish & exotics.",
      "2016 Mont-Royal Est"
    ],
    "coordinate": {
      "latitude": 45.5347139,
      "longitude": -73.5725822
    }
  },
  {
    "sector": "Animal Services",
    "city": "1107 Budapest",
    "fax": "+36 1-260-6269",
    "tel": "+36 1-262-1412",
    "name": "Euro-Buldog Bt.",
    "country": "HUNGARY",
    "__unidentified__": [
      "Ferenc Domoszlai",
      "Ferto Ut 14."
    ],
    "coordinate": {
      "latitude": 47.4745867,
      "longitude": 19.1196783
    },
    "email": "urobuldog@eurobuldog.hu"
  },
  {
    "sector": "Antiques",
    "city": "Beverly Hills, CA 90210",
    "fax": "+1 310-285-9740",
    "tel": "+1 310-285-0182",
    "name": "I.M. Chait Gallery",
    "country": "UNITED STATES",
    "__unidentified__": [
      "Izzy & Mariann Chait",
      "Asian art and antiques auction \u2013 sale.",
      "9330 Civic Center Drive"
    ],
    "coordinate": {
      "latitude": 34.0736204,
      "longitude": -118.4003563
    },
    "email": "arthtunes@aol.com"
  },
  {
    "sector": "Antiques",
    "city": "Clearwater, FL 33758",
    "tel": "+1 201-774-3935",
    "name": "Johnson, Karl",
    "country": "UNITED STATES",
    "__unidentified__": [
      "Antique carpets.",
      "P.O. Box 4615"
    ],
    "coordinate": {
      "latitude": 27.9656,
      "longitude": -82.8006
    },
    "email": "j9146@yahoo.com"
  },
  {
    "sector": "Apartments",
    "city": "85716 Unterschleissheim",
    "fax": "+49 893-700-6976",
    "tel": "+49 893-700-6975",
    "name": "Hausmeists Service Gast",
    "country": "GERMANY",
    "__unidentified__": [
      "Michael Bayer",
      "MAKH Winner; 1 Year",
      "Hausmeister (apartment manager).",
      "Buchen Str 27"
    ],
    "coordinate": {
      "latitude": 48.28411999999999,
      "longitude": 11.5672
    }
  },
  {
    "sector": "Arbourist",
    "city": "Troy, OH 45373",
    "fax": "+1 937-339-0071",
    "tel": "+1 937-335-3170",
    "name": "Tree Care, Inc.",
    "country": "UNITED STATES",
    "__unidentified__": [
      "Eric Davis",
      "Tree care of all kinds.",
      "421 Swailes Rd."
    ],
    "coordinate": {
      "latitude": 40.0394982,
      "longitude": -84.20327669999999
    },
    "email": "davis421@earthlink.net"
  },
  {
    "sector": "Architects",
    "city": "Los Gatos, CA 95030",
    "tel": "+1 408-354-3575",
    "name": "Allen Niktin, Architect",
    "country": "UNITED STATES",
    "__unidentified__": [
      "Allen Niktin",
      "236 N. Santa Cruz Avenue"
    ],
    "coordinate": {
      "latitude": 37.2358078,
      "longitude": -121.9623751
    }
  },
  {
    "sector": "Architects",
    "city": "East Northport, NY 11731",
    "fax": "+1 631-757-6204",
    "tel": "+1 631-757-6204",
    "name": "Andreas Letkovsky Architects",
    "country": "UNITED STATES",
    "__unidentified__": [
      "Andreas Letkovsky",
      "Architecture, interior design, consulting.",
      "229 Laurel Rd., 2nd Floor"
    ],
    "coordinate": {
      "latitude": 40.8767647,
      "longitude": -73.3245613
    },
    "email": "ndyletkovsky@cs.com"
  },
  {
    "sector": "Architects",
    "city": "8810 Horgen",
    "fax": "+41 11-725-9016",
    "tel": "+41 11-725-2577",
    "name": "Architecture And Design",
    "country": "SWITZERLAND",
    "__unidentified__": [
      "Walter & Barbara Hegetschweiler",
      "Design and planing in architecture and marketing.",
      "Schmiedweg 8"
    ],
    "coordinate": {
      "latitude": 47.2483725,
      "longitude": 8.6079058
    },
    "email": "rchegi@active.ch"
  },
  {
    "sector": "Architects",
    "city": "Meadow Vista, CA 95722",
    "fax": "+1 530-878-7799",
    "tel": "+1 530-878-4808",
    "name": "Bousfield Designs",
    "country": "UNITED STATES",
    "__unidentified__": [
      "Sam Bousfield",
      "Architect and inventor.",
      "1820 Hillish Rock Rd."
    ],
    "coordinate": {
      "latitude": 39.0010079,
      "longitude": -121.0218887
    },
    "email": "amhb@earthlink.net"
  },
  {
    "sector": "Architects",
    "website": "www.cattarchitects.com",
    "fax": "+61 3-9500-9535",
    "tel": "+61 3-9509-4650",
    "name": "Catt Architects",
    "city": "Malvern, VIC 3144",
    "country": "AUSTRALIA",
    "__unidentified__": [
      "Gary Catt",
      "MAKH Winner; 2 Years",
      "Charter Committee Member",
      "Highly crafted & aesthetic residential buildings.",
      "Box 477"
    ],
    "coordinate": {
      "latitude": -37.862072,
      "longitude": 145.028336
    },
    "email": "li@cattarchitects.com"
  },
  {
    "sector": "Architects",
    "city": "Sonora, CA 95370",
    "fax": "+1 209-532-9296",
    "tel": "+1 209-532-9296",
    "name": "Cooper Kessel Architect Assoc.",
    "country": "UNITED STATES",
    "__unidentified__": [
      "Cooper Kessel",
      "Design/build firm specializing in energy efficient and alternative energy designs, primarily custom residential.",
      "13951-A Mono Way"
    ],
    "coordinate": {
      "latitude": 37.9840911,
      "longitude": -120.3821381
    },
    "email": "ka@mlode.com"
  },
  {
    "sector": "Architects",
    "city": "San Juan, PR 00920",
    "fax": "+1 787-235-3670",
    "tel": "+1 787-782-6436",
    "name": "Francis Arana Architects",
    "country": "UNITED STATES",
    "__unidentified__": [
      "Illia Sanchez",
      "1136 Roosevelt Ave."
    ],
    "coordinate": {
      "latitude": 18.378999,
      "longitude": -66.052222
    },
    "email": "anchezarana@prte.net"
  },
  {
    "sector": "Architects",
    "website": "www.hobbsink.com",
    "fax": "+1 512-261-0007",
    "tel": "+1 512-261-6226",
    "name": "Hobbs\u2019 Ink",
    "city": "Lakeway, TX 78734",
    "country": "UNITED STATES",
    "__unidentified__": [
      "Janet Hobbs",
      "Award-winning custom home and remodel design firm in Texas Hill Country, principal designer, Janet L. Hobbs, AIBD. Member Homebuilders Association, Austin Green Building Program, American Institute of Building Design. Learn more about us and see our web site.",
      "1200 Lakeway Dr.",
      "Suite 4"
    ],
    "coordinate": {
      "latitude": 30.3679788,
      "longitude": -97.99167899999999
    },
    "email": "anethobb@hobbsink.com"
  },
  {
    "sector": "Architects",
    "city": "A-4614 Marchtrenk",
    "tel": "+43 72 435-2370",
    "name": "Ideenpavillon Architektur & Einrichten GmbH",
    "country": "AUSTRIA",
    "__unidentified__": [
      "Engelbert Beisl",
      "Welserstrasse 31"
    ],
    "coordinate": {
      "latitude": 48.1904452,
      "longitude": 14.120134
    },
    "email": "ert.beisl@ideenpavillon.at"
  },
  {
    "sector": "Architects",
    "city": "San Juan, PR 00918",
    "fax": "+1 787-766-0559",
    "tel": "+1 787-767-2182",
    "name": "Instant Print Corp.",
    "country": "UNITED STATES",
    "__unidentified__": [
      "Tony Blanco",
      "Architecture and design.",
      "276 Pinero Ave., #276"
    ],
    "coordinate": {
      "latitude": 18.378999,
      "longitude": -66.052222
    },
    "email": "ony@instantprint.com"
  },
  {
    "sector": "Architects",
    "city": "10801-7215",
    "fax": "+1 914-633-0594",
    "tel": "+1 914-637-0076",
    "name": "JS Creations",
    "country": "UNITED STATES",
    "__unidentified__": [
      "Jack Snyder",
      "Architectural, interior design and consulting.",
      "538 Main St.",
      "New Rochelle, NY"
    ],
    "coordinate": {
      "latitude": 40.9196897,
      "longitude": -73.7889689
    },
    "email": "atemery@aol.com"
  },
  {
    "sector": "Architects",
    "city": "Cresta, 2118",
    "tel": "+27 11-215-8282",
    "name": "Keystone Investments",
    "country": "SOUTH AFRICA",
    "__unidentified__": [
      "Louis Peens",
      "Architects.",
      "P.O. Box 5902"
    ],
    "coordinate": {
      "latitude": -26.1269017,
      "longitude": 27.9790814
    },
    "email": "alsh@mweb.co.za"
  },
  {
    "sector": "Architects",
    "website": "www.levyarquitectos.com",
    "fax": "+58 5-263-6023",
    "tel": "+58 6-696-1969",
    "name": "Levy Reyes Arquitectos",
    "city": "Porlamar, Isla Margarita",
    "country": "VENEZUELA",
    "__unidentified__": [
      "David Levy",
      "Architecture firm. Over 30 years designing residential and commercial architecture, public buildings, urban design, engineering and project management. Most recent project: www.terrazul.com.ve.",
      "Calle Jm Suarez",
      "El Camino #3"
    ],
    "coordinate": {
      "latitude": 10.960463,
      "longitude": -63.85059
    },
    "email": "nfo@levyarquitectos.com"
  },
  {
    "sector": "Architects",
    "city": "6593 Cadenazzo",
    "fax": "+41 91-605-6656",
    "tel": "+41 91-605-6653",
    "name": "M Two Solution S.A.",
    "country": "SWITZERLAND",
    "__unidentified__": [
      "Tiziano Antonini",
      "Charter Committee Member",
      "General contractor and real estate developer.",
      "Casa Zara 4"
    ],
    "coordinate": {
      "latitude": 46.1537379,
      "longitude": 8.94908
    },
    "email": "iziano@ticino.com"
  },
  {
    "sector": "Architects",
    "city": "6990 Cassina D\u2019Agno (Ti)",
    "fax": "+41 91-600-2411",
    "tel": "+41 91-600-2412",
    "name": "M Two Solution S.A.",
    "country": "SWITZERLAND",
    "__unidentified__": [
      "Lucio La Chimia",
      "Charter Committee Member",
      "Project management & general contractor specialized for commercial & industrial buildings.",
      "Via Selva, 24/A"
    ],
    "coordinate": {
      "latitude": 45.9910581,
      "longitude": 8.8935479
    },
    "email": "isecharter@ticino.com"
  },
  {
    "sector": "Architects",
    "city": "1046 Budapest",
    "fax": "+36 3-288-0666",
    "tel": "+36 3-096-2859",
    "name": "Materny Epiteszstudio Es Ingatlanforgalmazo KFT",
    "country": "HUNGARY",
    "__unidentified__": [
      "Karoly Materny",
      "Epiteszeti es generaltervezes es ingatlanfevlesztes es ertekesites.",
      "Ugro Gy U. 15"
    ],
    "coordinate": {
      "latitude": 47.5735211,
      "longitude": 19.1068043
    },
    "email": "aterny.karoly@axelero.hu"
  },
  {
    "sector": "Architects",
    "city": "Clearwater, FL 33756",
    "fax": "+1 727-461-4787",
    "tel": "+1 727-461-5424",
    "name": "Metro Architects, Inc.",
    "country": "UNITED STATES",
    "__unidentified__": [
      "Chris Miller",
      "Architectural services.",
      "314 S. Missouri Ave.",
      "Suite 311"
    ],
    "coordinate": {
      "latitude": 27.9413341,
      "longitude": -82.79402970000001
    },
    "email": "hris.miller@metroarchitects.net"
  },
  {
    "sector": "Architects",
    "city": "Tokyo, 106-0031",
    "fax": "+81 81-3797-6065",
    "tel": "+81 81-3797-6066",
    "name": "Miwakankyo",
    "country": "JAPAN",
    "__unidentified__": [
      "Mike Miwa",
      "Architecture, interior design and design consulting.",
      "2-26-7 Nishiazabu Minato Ku"
    ],
    "coordinate": {
      "latitude": 35.6616862,
      "longitude": 139.7205713
    },
    "email": "ail@miwakankyo.co.jp"
  },
  {
    "sector": "Architects",
    "website": "www.pcarch.co.za",
    "fax": "+27 11-615-6644",
    "tel": "+27 11-615-6640",
    "name": "PC Architectural Design",
    "city": "Johannesburg, Gauteng 2068",
    "country": "SOUTH AFRICA",
    "__unidentified__": [
      "Peter Cooke",
      "Charter Committee Member",
      "Architectural design and drafting services to home-owners, architects, building contractors, and property investors, retail layout experts, and multiresidence design. Mobile phone: +27 83-996-1259.",
      "14 Milner Crescent",
      "Kensington"
    ],
    "coordinate": {
      "latitude": -26.0129647,
      "longitude": 28.005434
    },
    "email": "ales@pcarch.co.za"
  },
  {
    "sector": "Architects",
    "website": "www.oregoncoast.com",
    "fax": "+1 503-392-9331",
    "tel": "+1 503-392-3806",
    "name": "Peter Asher Designs",
    "city": "Cloverdale, OR 97112-9405",
    "country": "UNITED STATES",
    "__unidentified__": [
      "Peter Asher",
      "Custom home designbuild service, specializing in view homes.",
      "48250 Little Nestucca"
    ],
    "coordinate": {
      "latitude": 45.2055135,
      "longitude": -123.8879045
    },
    "email": "sherrp@oregoncoast.com"
  },
  {
    "sector": "Architects",
    "city": "Chester Springs, PA 19425",
    "fax": "+1 610-827-1759",
    "tel": "+1 610-827-1759",
    "name": "Renaissance Homes, Ltd.",
    "country": "UNITED STATES",
    "__unidentified__": [
      "William Hollenshead",
      "Artist, designer, master custom builder, architect.",
      "3098 Merlin Rd."
    ],
    "coordinate": {
      "latitude": 40.1097938,
      "longitude": -75.632447
    },
    "email": "homeslt@voicenet.com"
  },
  {
    "sector": "Architects",
    "website": "www.californiaarchitect.com",
    "tel": "+1 818-502-0111",
    "name": "Richard E. Springsteed, Consulting Architect",
    "city": "Glendale, CA 91208-2020",
    "country": "UNITED STATES",
    "__unidentified__": [
      "Richard Springsteed",
      "Licensed and in practice 30 years. License C-9548. Project consulting to companies, organizations, developers and individuals.",
      "1681 Santa Barbara Ave."
    ],
    "coordinate": {
      "latitude": 34.1980641,
      "longitude": -118.2351192
    },
    "email": "nfo@californiaarchitect.com"
  },
  {
    "sector": "Architects",
    "city": "117463 Moscow",
    "fax": "+7 095-328-5587",
    "tel": "+7 095-798-0406",
    "name": "Rodnikova, Anna",
    "country": "RUSSIA",
    "__unidentified__": [
      "Architecture, design.",
      "Paustovskogo Str 5-1-67"
    ],
    "coordinate": {
      "latitude": 55.5968485,
      "longitude": 37.54433150000001
    },
    "email": "odnik@mail.ru"
  },
  {
    "sector": "Architects",
    "city": "1015 Budapest",
    "fax": "+36 1-212-7132",
    "tel": "+36 1-212-7132",
    "name": "Romai Atelier",
    "country": "HUNGARY",
    "__unidentified__": [
      "Epitesziroda Bt.",
      "Maria Molnar",
      "Building planning.",
      "Csarogany U. 14."
    ],
    "coordinate": {
      "latitude": 47.5054711,
      "longitude": 19.0326532
    },
    "email": "aria.molnar@chello.hu"
  },
  {
    "sector": "Architects",
    "website": "www.specpack.com",
    "fax": "+61 3-9563-2799",
    "tel": "+61 3-9563-1466",
    "name": "SpecPack Pty., Ltd.",
    "city": "Oakleigh, VIC 3166",
    "country": "AUSTRALIA",
    "__unidentified__": [
      "David Nall",
      "MAKH Winner; 1 Year",
      "Production of architectural software.",
      "P.O. Box 2002"
    ],
    "coordinate": {
      "latitude": -37.89846,
      "longitude": 145.088379
    },
    "email": "nall@specpack.com.au"
  },
  {
    "sector": "Architects",
    "city": "Glendale, CA 91205",
    "fax": "+1 818-240-2096",
    "tel": "+1 818-240-2095",
    "name": "Sturgill Associates",
    "country": "UNITED STATES",
    "__unidentified__": [
      "Curt Sturgill",
      "A full service architectural firm with over 1,000 successful commercial and residential projects completed to date.",
      "415 E. Broadway, Ste. 100"
    ],
    "coordinate": {
      "latitude": 34.1337367,
      "longitude": -118.2468148
    },
    "email": "uzannesturgill@earthlink.net"
  },
  {
    "sector": "Architects",
    "city": "Johannesburg, 1685",
    "fax": "+27 11-468-2806",
    "tel": "+27 11-468-2805",
    "name": "Theta Plan, Inc.",
    "country": "SOUTH AFRICA",
    "__unidentified__": [
      "Philip Kleynhans",
      "Charter Committee Member",
      "P.O. Box 4678",
      "Halfway House"
    ],
    "coordinate": {
      "latitude": -26.0142774,
      "longitude": 28.1473771
    },
    "email": "hetaplan@cybertrade.co.za"
  },
  {
    "sector": "Architects",
    "city": "Coral Gables, FL 33134",
    "fax": "+1 305-648-3537",
    "tel": "+1 305-648-2484",
    "name": "Urbaniza Investments, Inc.",
    "country": "UNITED STATES",
    "__unidentified__": [
      "Gladys Margarita Diaz-Jourdain",
      "Charter Committee Member",
      "Architecture and design of cities, urban planning policy for communities. Urban residential and commercial design and construction.",
      "801 Madrid St., Ste. 203"
    ],
    "coordinate": {
      "latitude": 25.7564662,
      "longitude": -80.2711588
    },
    "email": "ladmag@urbaniza.us"
  },
  {
    "sector": "Architects",
    "city": "Caguas, PR 00725",
    "fax": "+1 787-744-5607",
    "tel": "+1 787-347-9997",
    "name": "Versus Corporaton",
    "country": "UNITED STATES",
    "__unidentified__": [
      "Claudio Solano",
      "Charter Committee Member",
      "Art, architecture management and construction. Urban planning and urban art.",
      "Ext El Verde",
      "Calle Venus, #16"
    ],
    "coordinate": {
      "latitude": 18.2214809,
      "longitude": -66.0400373
    },
    "email": "solano@yahoo.com"
  },
  {
    "sector": "Art Galleries",
    "city": "Northville, MI 48167",
    "tel": "+1 248-449-6833",
    "name": "BWA Gallery",
    "country": "UNITED STATES",
    "__unidentified__": [
      "Alfredo Moreno",
      "43133 Seven Mile Rd."
    ],
    "coordinate": {
      "latitude": 42.4311464,
      "longitude": -83.4832692
    },
    "email": "wagallery@sbcglobal.net"
  },
  {
    "sector": "Art Galleries",
    "city": "Glendale, CA 91203",
    "fax": "+1 719-383-0454",
    "tel": "+1 818-720-5588",
    "name": "Tanno Galleries, Inc.",
    "country": "UNITED STATES",
    "__unidentified__": [
      "Alicia Loree",
      "249 N. Brand Blvd., #349"
    ],
    "coordinate": {
      "latitude": 34.1531191,
      "longitude": -118.2614332
    },
    "email": "licialoree@yahoo.com"
  },
  {
    "sector": "Art Galleries",
    "city": "Clearwater, FL 33755",
    "tel": "+1 727-741-6800",
    "name": "The Digital Art Gallery",
    "country": "UNITED STATES",
    "__unidentified__": [
      "Jacinto Castellano",
      "Fine art printing, photo to canvas, photography, framing, digital services.",
      "504 N. Fort Harrison Ave."
    ],
    "coordinate": {
      "latitude": 27.981827,
      "longitude": -82.7886395
    },
    "email": "nfo@thedigitalartgallery.com"
  },
  {
    "sector": "Art Galleries",
    "city": "Malvern, VIC 3144",
    "fax": "+61 3-9500-2156",
    "tel": "+61 3-9576-1566",
    "name": "The Print Decor",
    "country": "AUSTRALIA",
    "__unidentified__": [
      "Bernie Lowenstein",
      "Mirrors, prints, custom framing & artwork.",
      "55 Glenferrie Rd."
    ],
    "coordinate": {
      "latitude": -37.862072,
      "longitude": 145.028336
    },
    "email": "owensteinbl@optusnet.com.au"
  },
  {
    "sector": "Art Products",
    "city": "Fair Oaks, CA 95628-3451",
    "fax": "+1 916-967-7909",
    "tel": "+1 916-967-2330",
    "name": "Alexis Genung Studios",
    "country": "UNITED STATES",
    "__unidentified__": [
      "Alexis & Michael Genung",
      "Fine art, portraiture, prints, posters, wall decor, and design.",
      "7842 Tamara Dr."
    ],
    "coordinate": {
      "latitude": 38.6446264,
      "longitude": -121.2721718
    },
    "email": "lexisgenung@earthlink.net michael@alexisgenungstudios.com"
  },
  {
    "sector": "Art Products",
    "city": "Las Vegas, NV 89116",
    "fax": "+1 702-920-8129",
    "tel": "+1 206-219-9046",
    "name": "Art Broom Limited Editions, Inc.",
    "country": "UNITED STATES",
    "__unidentified__": [
      "Doug Nagy",
      "Wholesale art dealer.",
      "P.O. Box 43950"
    ],
    "coordinate": {
      "latitude": 36.1558244,
      "longitude": -115.1153563
    },
    "email": "mntemp@hotmail.com"
  },
  {
    "sector": "Art Products",
    "city": "Burbank, CA 91502-2548",
    "fax": "+1 818-556-5237",
    "tel": "+1 818-557-6755",
    "name": "Art Wave International, Inc.",
    "country": "UNITED STATES",
    "__unidentified__": [
      "Shaul Havivy",
      "1001 S. Victory Blvd."
    ],
    "coordinate": {
      "latitude": 34.1772371,
      "longitude": -118.3082034
    },
    "email": "haulh@artwave.net"
  },
  {
    "sector": "Art Products",
    "city": "123301 Moscow",
    "tel": "+7 095-507-8450",
    "name": "Art\u2019elle",
    "country": "RUSSIA",
    "__unidentified__": [
      "Evgeniy Balashov",
      "Mira Str 101A-22"
    ],
    "coordinate": {
      "latitude": 55.73177260000001,
      "longitude": 37.4874249
    },
    "email": "o888@cityline.ru"
  },
  {
    "sector": "Art Products",
    "city": "Seattle, WA 98105",
    "tel": "+1 206-228-5118",
    "name": "Artworks For You, Inc.",
    "country": "UNITED STATES",
    "__unidentified__": [
      "Bryan Ubaghs",
      "5737 36 Ave. NE"
    ],
    "coordinate": {
      "latitude": 47.6614244,
      "longitude": -122.2683743
    },
    "email": "ryanubaghs@comcast.net"
  },
  {
    "sector": "Art Products",
    "city": "Clearwater, FL 33765",
    "fax": "+1 727-467-0283",
    "tel": "+1 727-447-1981",
    "name": "Big Game Company",
    "country": "UNITED STATES",
    "__unidentified__": [
      "Jon Supak",
      "Picture framing factory, wholesaling of framed posters and prints.",
      "1610 N. Hercules Ave.",
      "Suites I & J"
    ],
    "coordinate": {
      "latitude": 27.9765043,
      "longitude": -82.74280569999999
    },
    "email": "supak1@tampabay.rr.com"
  },
  {
    "sector": "Art Products",
    "city": "09042 Monserrato (Ca)",
    "fax": "+39 907-057-5222",
    "tel": "+39 907-057-5222",
    "name": "Boi, Sebastiano",
    "country": "ITALY",
    "__unidentified__": [
      "Incisioni laser.",
      "Via Monte Arci, 35"
    ],
    "coordinate": {
      "latitude": 39.2560191,
      "longitude": 9.1453579
    },
    "email": "ebastianoboi@aliceposta.it"
  },
  {
    "sector": "Art Products",
    "city": "Seattle, WA 98134",
    "fax": "+1 206-623-0682",
    "tel": "+1 206-623-1007",
    "name": "Bruning Pottery",
    "country": "UNITED STATES",
    "__unidentified__": [
      "Judy & Larry Bruning",
      "Manufacture, wholesale and retail high-fired pottery for home and garden.",
      "2908 6th Avenue S."
    ],
    "coordinate": {
      "latitude": 47.583863,
      "longitude": -122.3406748
    },
    "email": "udy@bruningpottery.com"
  },
  {
    "sector": "Art Products",
    "city": "Koridalos, Athens",
    "fax": "+30 210-514-6362",
    "tel": "+30 210-514-6362",
    "name": "Buy More Art Co.",
    "country": "GREECE",
    "__unidentified__": [
      "James Johnson",
      "Manufacturer of framed art and mirrors. Art gallery/showroom/factory.",
      "10820 75th St.",
      "Largo, FL 33777",
      "Halaris, Kyriakos",
      "88 Limnoy St."
    ],
    "coordinate": {
      "latitude": 37.9837155,
      "longitude": 23.7293097
    },
    "email": "rtincolor@mail.gr"
  },
  {
    "sector": "Art Products",
    "city": "Los Angeles, CA 90031",
    "fax": "+1 323-226-0210",
    "tel": "+1 323-226-0203",
    "name": "Impact International",
    "country": "UNITED STATES",
    "__unidentified__": [
      "Charles Borom",
      "Manufacturer of wholesale art & mirrors.",
      "3055 Humbolt Street"
    ],
    "coordinate": {
      "latitude": 34.081032,
      "longitude": -118.2117257
    }
  },
  {
    "sector": "Art Products",
    "city": "New Orleans, LA 70158",
    "tel": "+1 504-246-3018",
    "name": "Kelley, Margaret",
    "country": "UNITED STATES",
    "__unidentified__": [
      "P.O. Box 58818"
    ],
    "coordinate": {
      "latitude": 29.95,
      "longitude": -90.08
    },
    "email": "argaretkelley@bellsouth.net"
  },
  {
    "sector": "Art Products",
    "city": "Hellas 17121",
    "name": "Kourkoulou, Angeliki",
    "country": "GREECE",
    "__unidentified__": [
      "Charter Committee Member",
      "Sardeon 19-12",
      "Nea Smyrny-Athens"
    ],
    "coordinate": {
      "latitude": 37.947859,
      "longitude": 23.7082256
    }
  },
  {
    "sector": "Art Products",
    "city": "Minneapolis, MN 55411",
    "fax": "+1 612-522-8453",
    "tel": "+1 612-250-3299",
    "name": "Mercury Mosaics",
    "country": "UNITED STATES",
    "__unidentified__": [
      "Mercedes Mattila",
      "125 West Broadway Ave."
    ],
    "coordinate": {
      "latitude": 44.99448719999999,
      "longitude": -93.2983975
    },
    "email": "ercedes@mercurymosaics.com"
  },
  {
    "sector": "Art Products",
    "city": "2053 Herceghalom",
    "fax": "+36 23-319-098",
    "tel": "+36 23-319-098",
    "name": "Sab Bt.",
    "country": "HUNGARY",
    "__unidentified__": [
      "Gregor Gall",
      "The sculptural arts.",
      "Thalloczy U. 3."
    ],
    "coordinate": {
      "latitude": 47.4981008,
      "longitude": 18.7448064
    },
    "email": "regor@gregorgall.com"
  },
  {
    "sector": "Art Products",
    "city": "Quebec, PQ G1K 4H5",
    "tel": "+1 418-692-2813",
    "name": "Sculteur Flamand",
    "country": "CANADA",
    "__unidentified__": [
      "Alain Flamand",
      "Creation, fabrication and sale of wood sculpture. Woodcarving high or low relief, three dimensional, any style or subject. Commissions accepted.",
      "49 Petit Champlain"
    ],
    "coordinate": {
      "latitude": 46.81209399999999,
      "longitude": -71.2034394
    }
  },
  {
    "sector": "Art Products",
    "city": "Clearwater, FL 33755",
    "fax": "+1 727-446-7523",
    "tel": "+1 800-299-1258",
    "name": "Source Inspiration, Inc.",
    "country": "UNITED STATES",
    "__unidentified__": [
      "Grant & Siouxie Boshoff",
      "Inspirational framed art and screen saver with quotes by L. Ron Hubbard.",
      "1300 North Fort Harrison"
    ],
    "coordinate": {
      "latitude": 27.981827,
      "longitude": -82.7886395
    },
    "email": "nfo@sourceinspiration.com"
  },
  {
    "sector": "Art Products",
    "city": "Palm Harbor, FL 34684",
    "fax": "+1 727-785-2617",
    "tel": "+1 727-773-1107",
    "name": "Steve Gill\u2019s Humorous Art",
    "country": "UNITED STATES",
    "__unidentified__": [
      "Anna Dileo Gill",
      "3662 Chatham Dr."
    ],
    "coordinate": {
      "latitude": 28.0715767,
      "longitude": -82.723924
    }
  },
  {
    "sector": "Art Products",
    "city": "Los Angeles, CA 90068",
    "tel": "+1 323-962-8718",
    "name": "The Fine Art Collection",
    "country": "UNITED STATES",
    "__unidentified__": [
      "Howard Shube",
      "1965 Cheremoya Ave."
    ],
    "coordinate": {
      "latitude": 34.1235157,
      "longitude": -118.3286614
    },
    "email": "shube@earthlink.net"
  },
  {
    "sector": "Art Products",
    "city": "Romeoville, IL 60446",
    "fax": "+1 703-995-0413",
    "tel": "+1 727-224-1832",
    "name": "Windy City Carpets, Inc.",
    "country": "UNITED STATES",
    "__unidentified__": [
      "Philip Jepsen",
      "Area rugs and fine art (handpainted oil paintings).",
      "1413 Sherman Road, Ste. 40"
    ],
    "coordinate": {
      "latitude": 41.6475306,
      "longitude": -88.0895061
    },
    "email": "ales@windycitycarpets.com"
  },
  {
    "sector": "Art Services",
    "city": "Fair Oaks, CA 95628-3451",
    "fax": "+1 916-967-7909",
    "tel": "+1 916-967-2330",
    "name": "Alexis Genung Studios",
    "country": "UNITED STATES",
    "__unidentified__": [
      "Alexis & Michael Genung",
      "Fine art, portraiture, prints, posters, wall decor, and design.",
      "7842 Tamara Dr."
    ],
    "coordinate": {
      "latitude": 38.6446264,
      "longitude": -121.2721718
    },
    "email": "lexisgenung@earthlink.net michael@alexisgenungstudios.com"
  },
  {
    "sector": "Art Services",
    "website": "www.artistcareerservices.com",
    "fax": "+1 727-736-8902",
    "tel": "+1 727-491-0551",
    "name": "Artist Career Services",
    "city": "Dunedin, FL 34698",
    "country": "UNITED STATES",
    "__unidentified__": [
      "Tony Rockliff",
      "Company helps artists with careers.",
      "1195 Fairway Dr."
    ],
    "coordinate": {
      "latitude": 28.0197404,
      "longitude": -82.7717684
    },
    "email": "yaz@artistcareerservices.com"
  },
  {
    "sector": "Art Services",
    "city": "Van Nuys, CA 14251",
    "tel": "+1 818-508-8195",
    "name": "Cameron James Kaye Studio",
    "country": "UNITED STATES",
    "__unidentified__": [
      "Cameron Kaye",
      "MAKH Winner; 3 Years",
      "13251 Archwood Street"
    ],
    "coordinate": {
      "latitude": 34.1957268,
      "longitude": -118.4918498
    }
  },
  {
    "sector": "Art Services",
    "city": "22449 Hamburg",
    "fax": "+49 940-550-6070",
    "tel": "+49 940-550-6058",
    "name": "Fantastic Art & Image GmbH",
    "country": "GERMANY",
    "__unidentified__": [
      "Carl Roehrig",
      "Postfach 616233"
    ],
    "coordinate": {
      "latitude": 53.54859,
      "longitude": 9.94657
    },
    "email": "wroehrig@aol.com"
  },
  {
    "sector": "Art Services",
    "city": "Boston, MA 02115",
    "fax": "+1 617-536-1885",
    "tel": "+1 617-536-4553",
    "name": "Jeannie Deva Voice Studios",
    "country": "UNITED STATES",
    "__unidentified__": [
      "Craig Jones",
      "295 Huntington Ave.",
      "Suite 209"
    ],
    "coordinate": {
      "latitude": 42.339904,
      "longitude": -71.0898892
    },
    "email": "mjones1@gmail.com"
  },
  {
    "sector": "Art Services",
    "city": "Glendale, CA 91203-1519",
    "fax": "+1 818-243-9697",
    "tel": "+1 818-243-9696",
    "name": "Mission: Renaissance, Inc.",
    "country": "UNITED STATES",
    "__unidentified__": [
      "Ted Prescott",
      "Traditional drawing and painting instruction for children, teens & adult \u2013 16 studios.",
      "800 W. Doran St."
    ],
    "coordinate": {
      "latitude": 34.1531191,
      "longitude": -118.2614332
    },
    "email": "lue@fineartclasses.com"
  },
  {
    "sector": "Art Services",
    "city": "Brooklyn, NY 11226",
    "tel": "+1 717-379-9452",
    "name": "Sound, Art & Fashion",
    "country": "UNITED STATES",
    "__unidentified__": [
      "Stephen Spataro",
      "1829 Caton Ave. #4C"
    ],
    "coordinate": {
      "latitude": 40.6470923,
      "longitude": -73.9536163
    },
    "email": "tevespataro@yahoo.com"
  },
  {
    "sector": "Art Services",
    "city": "Brick, NJ 08723",
    "fax": "+1 732-262-4599",
    "tel": "+1 732-262-8898",
    "name": "The Art & Picture Store",
    "country": "UNITED STATES",
    "__unidentified__": [
      "Larry McDonald",
      "A large discount art, frame and mirror retailer, also a manufacturer and importer.",
      "799 Brick Blvd."
    ],
    "coordinate": {
      "latitude": 40.0508979,
      "longitude": -74.1357407
    },
    "email": "nfo@framedmirrors.net"
  },
  {
    "sector": "Art Services",
    "city": "Reston, VA 20194-1728",
    "fax": "+1 703-471-6446",
    "tel": "+1 703-471-7907",
    "name": "Words & Pictures East Coast",
    "country": "UNITED STATES",
    "__unidentified__": [
      "Pam Coulter Blehert",
      "Art and writing services, computer graphics and web design.",
      "11919 Moss Point Ln."
    ],
    "coordinate": {
      "latitude": 38.9770833,
      "longitude": -77.3496708
    },
    "email": "am@blehert.com"
  },
  {
    "sector": "Artisan",
    "city": "Cherry Hill, NJ 08034",
    "tel": "+1 856-625-5506",
    "name": "Eagle Nest Miniatures",
    "country": "UNITED STATES",
    "__unidentified__": [
      "Harry Hieke",
      "Maker of model trains.",
      "119 S. Woodstock Drive"
    ],
    "coordinate": {
      "latitude": 39.9021937,
      "longitude": -74.9968543
    }
  },
  {
    "sector": "Artisan",
    "city": "23845 Costamasnaga (Lc)",
    "fax": "+39 903-186-9571",
    "tel": "+39 903-186-9048",
    "name": "Green Lines Di Molteni Dario",
    "country": "ITALY",
    "__unidentified__": [
      "Dario Molteni",
      "Wire netting maker and laying.",
      "Via Italia N., 5"
    ],
    "coordinate": {
      "latitude": 45.7684041,
      "longitude": 9.2678861
    }
  },
  {
    "sector": "Artisan",
    "city": "23875 Osnago Lecco",
    "fax": "+39 039-928-0219",
    "tel": "+39 039-928-0219",
    "name": "Log-In di Ballo Danilo & C.",
    "country": "ITALY",
    "__unidentified__": [
      "Danilo Ballo",
      "Music productions and songwriting.",
      "Via Liberta, 5"
    ],
    "coordinate": {
      "latitude": 45.6789256,
      "longitude": 9.3915884
    },
    "email": "aniloballo@tiscali.it"
  },
  {
    "sector": "Artisan",
    "city": "San Jose, CA 95124",
    "fax": "+1 801-659-5545",
    "tel": "+1 408-448-1683",
    "name": "Molto Bene",
    "country": "UNITED STATES",
    "__unidentified__": [
      "Kevin Connetta",
      "Decorative plaster wall finishing and painting.",
      "3164 Kimber Court, #71"
    ],
    "coordinate": {
      "latitude": 37.2583724,
      "longitude": -121.918866
    },
    "email": "olto@earthlink.net"
  },
  {
    "sector": "Artists",
    "website": "www.ams-illustrations.co.uk",
    "tel": "+44 1342-315575",
    "name": "AMS-Illustrations",
    "city": "Sussex RH19 1AR",
    "country": "UNITED KINGDOM",
    "__unidentified__": [
      "Anne-Marie Sonneveld",
      "I\u2019m a published illustrator. Illustrations, cartoons or logos. Drawn by hand, coloured digitally. Please visit my website.",
      "20 Dallaway Gardens",
      "East Grinstead, West"
    ],
    "coordinate": {
      "latitude": 51.1258917,
      "longitude": -0.0113995
    },
    "email": "nne-marie@pncl.co.uk"
  },
  {
    "sector": "Artists",
    "city": "8913 Ottenbach",
    "fax": "+41 01-761-9173",
    "tel": "+41 79-253-1739",
    "name": "Art By Bonvalet",
    "country": "SWITZERLAND",
    "__unidentified__": [
      "Andre Gutknecht",
      "Zwillikerstrasse 18"
    ],
    "coordinate": {
      "latitude": 47.2809,
      "longitude": 8.404349999999999
    },
    "email": "onvalet@bluewin.ch"
  },
  {
    "sector": "Artists",
    "city": "Clearwater, FL 33756",
    "fax": "+1 727-461-9612",
    "tel": "+1 727-461-9612",
    "name": "Art Glass Studios & Company",
    "country": "UNITED STATES",
    "__unidentified__": [
      "Dwight Matheny",
      "Leaded, beveled and stained glass doors and windows.",
      "321 S. Missouri Ave."
    ],
    "coordinate": {
      "latitude": 27.9413341,
      "longitude": -82.79402970000001
    },
    "email": "rtglas1@earthlink.net"
  },
  {
    "sector": "Artists",
    "city": "8048 Zurich",
    "fax": "+41 11-430-2038",
    "tel": "+41 11-430-2036",
    "name": "Atelier Markus Wyss",
    "country": "SWITZERLAND",
    "__unidentified__": [
      "Markus Wyss",
      "Painting school and gallery.",
      "Altstelferstr. 193"
    ],
    "coordinate": {
      "latitude": 47.3860458,
      "longitude": 8.4793558
    },
    "email": "yssmarkus@swissonline.ch"
  },
  {
    "sector": "Artists",
    "city": "Takoma Park, MD 20912",
    "fax": "+1 301-434-4639",
    "tel": "+1 301-434-4644",
    "name": "Baker\u2019s Studio",
    "country": "UNITED STATES",
    "__unidentified__": [
      "Ron Baker",
      "Calligraphy ... the art of beautiful writing which turns symbols into theta. Certificates, awards, personal copy.",
      "7402 Wildwood Drive"
    ],
    "coordinate": {
      "latitude": 38.9778882,
      "longitude": -77.0074765
    },
    "email": "akerstudio30@aol.com"
  },
  {
    "sector": "Artists",
    "city": "Quebec, QUE G1L 4G7",
    "tel": "+1 418-948-0105",
    "name": "de Braga, Jose",
    "country": "CANADA",
    "__unidentified__": [
      "Artist/sculpture, metal, paint.",
      "229, Rue de La Martiniere"
    ],
    "coordinate": {
      "latitude": 46.8273212,
      "longitude": -71.2349247
    },
    "email": "osecdebraga@globetrotter.net"
  },
  {
    "sector": "Artists",
    "city": "561-0852",
    "fax": "+81 06-6863-9368",
    "tel": "+81 90-8529-5471",
    "name": "Edutainment Inc.",
    "country": "JAPAN",
    "__unidentified__": [
      "Butch Read",
      "Comedy, magic, juggling and theatre improvisation.",
      "3-10-18-107 Hattori",
      "Honmachi",
      "Toyonaka Shi, Osaka"
    ],
    "coordinate": {
      "latitude": 34.7645983,
      "longitude": 135.4774912
    },
    "email": "utchread@nifty.com"
  },
  {
    "sector": "Artists",
    "city": "Portland, OR 97219",
    "tel": "+1 503-244-8943",
    "name": "Flying Lemur Press",
    "country": "UNITED STATES",
    "__unidentified__": [
      "Gaabriel Becket",
      "Writing, art and small press.",
      "7006 SW 4th Avenue"
    ],
    "coordinate": {
      "latitude": 45.4618086,
      "longitude": -122.7181902
    },
    "email": "aabrielbecket@msn.com"
  },
  {
    "sector": "Artists",
    "city": "East Grinstead, West Sussex",
    "tel": "+44 7903-647605",
    "name": "Gregori, Maria",
    "country": "UNITED KINGDOM",
    "__unidentified__": [
      "Artist-painter.",
      "206 Rockwood Park"
    ],
    "coordinate": {
      "latitude": 51.128742,
      "longitude": -0.014468
    },
    "email": "dgregori@yahoo.com"
  },
  {
    "sector": "Artists",
    "city": "Ann Arbor, MI 48105",
    "fax": "+1 734-332-4833",
    "tel": "+1 734-994-0745",
    "name": "Hamady, Susan",
    "country": "UNITED STATES",
    "__unidentified__": [
      "467 Pine Brae Drive"
    ],
    "coordinate": {
      "latitude": 42.2808256,
      "longitude": -83.7430378
    }
  },
  {
    "sector": "Artists",
    "city": "Clearwater, FL 33756",
    "tel": "+1 727-447-2826",
    "name": "Harbor Oaks Art & Design",
    "country": "UNITED STATES",
    "__unidentified__": [
      "Ron Kule",
      "611 S. Ft Harrison Ave.,",
      "Suite 322"
    ],
    "coordinate": {
      "latitude": 27.9413341,
      "longitude": -82.79402970000001
    },
    "email": "jkule@aol.com"
  },
  {
    "sector": "Artists",
    "city": "New York, NY 10123",
    "fax": "+1 917-591-8477",
    "tel": "+1 212-201-1013",
    "name": "ILH Entertainment, Inc.",
    "country": "UNITED STATES",
    "__unidentified__": [
      "Issac Hayes",
      "Mintz Rosenfeld",
      "450 Seventh Ave., Ste. 1701"
    ],
    "coordinate": {
      "latitude": 40.75184549999999,
      "longitude": -73.9916344
    },
    "email": "kumik@aol.com"
  },
  {
    "sector": "Artists",
    "city": "New York, NY 10123",
    "fax": "+1 917-591-8477",
    "tel": "+1 212-201-1013",
    "name": "Isaac Hayes Entertainment",
    "country": "UNITED STATES",
    "__unidentified__": [
      "Christina Kumi Kimball",
      "Executive Director, business affairs and brand development.",
      "Mintz Rosenfeld",
      "450 Seventh Ave., Ste. 1701"
    ],
    "coordinate": {
      "latitude": 40.75184549999999,
      "longitude": -73.9916344
    },
    "email": "umi@isaachayes.com"
  },